[{"city": "Taylor", "domain": "acu.edu", "name": "Abilene Christian University", "geocoder": {"status": "OK", "results": [{"geometry": {"bounds": {"northeast": {"lat": 32.4746053, "lng": -99.703076}, "southwest": {"lat": 32.4657958, "lng": -99.7115625}}, "location": {"lat": 32.4710808, "lng": -99.70794099999999}, "viewport": {"northeast": {"lat": 32.4746053, "lng": -99.703076}, "southwest": {"lat": 32.4657958, "lng": -99.7115625}}, "location_type": "APPROXIMATE"}, "address_components": [{"long_name": "Abilene Christian University", "types": ["establishment"], "short_name": "Abilene Christian University"}, {"long_name": "1949", "types": ["street_number"], "short_name": "1949"}, {"long_name": "ACU Dr", "types": ["route"], "short_name": "ACU Dr"}, {"long_name": "Abilene Heights Area", "types": ["neighborhood", "political"], "short_name": "Abilene Heights Area"}, {"long_name": "Abilene", "types": ["locality", "political"], "short_name": "Abilene"}, {"long_name": "Taylor", "types": ["administrative_area_level_2", "political"], "short_name": "Taylor"}, {"long_name": "Texas", "types": ["administrative_area_level_1", "political"], "short_name": "TX"}, {"long_name": "United States", "types": ["country", "political"], "short_name": "US"}, {"long_name": "79699", "types": ["postal_code"], "short_name": "79699"}], "formatted_address": "Abilene Christian University, 1949 ACU Dr, Abilene, TX 79699, USA", "types": ["university", "establishment"]}]}, "longitude": -99.70794099999999, "state": "TX", "latitude": 32.4710808, "id": 1979}, {"city": "Nassau", "domain": "adelphi.edu", "name": "Adelphi University", "geocoder": {"status": "OK", "results": [{"geometry": {"bounds": {"northeast": {"lat": 40.72270109999999, "lng": -73.64870549999999}, "southwest": {"lat": 40.7166098, "lng": -73.65518209999999}}, "location": {"lat": 40.7220719, "lng": -73.6506244}, "viewport": {"northeast": {"lat": 40.72270109999999, "lng": -73.64870549999999}, "southwest": {"lat": 40.7166098, "lng": -73.65518209999999}}, "location_type": "APPROXIMATE"}, "address_components": [{"long_name": "Adelphi University", "types": ["establishment"], "short_name": "Adelphi University"}, {"long_name": "154", "types": ["street_number"], "short_name": "154"}, {"long_name": "Cambridge Ave", "types": ["route"], "short_name": "Cambridge Ave"}, {"long_name": "Garden City", "types": ["locality", "political"], "short_name": "Garden City"}, {"long_name": "Hempstead", "types": ["administrative_area_level_3", "political"], "short_name": "Hempstead"}, {"long_name": "Nassau", "types": ["administrative_area_level_2", "political"], "short_name": "Nassau"}, {"long_name": "New York", "types": ["administrative_area_level_1", "political"], "short_name": "NY"}, {"long_name": "United States", "types": ["country", "political"], "short_name": "US"}, {"long_name": "11530", "types": ["postal_code"], "short_name": "11530"}], "formatted_address": "Adelphi University, 154 Cambridge Ave, Garden City, NY 11530, USA", "types": ["university", "establishment"]}]}, "longitude": -73.6506244, "state": "NY", "latitude": 40.7220719, "id": 1980}, {"city": "DeKalb", "domain": "scottlan.edu", "name": "Agnes Scott College", "geocoder": {"status": "OK", "results": [{"geometry": {"location": {"lat": 33.7677676, "lng": -84.29579969999999}, "viewport": {"northeast": {"lat": 33.7770427, "lng": -84.2797923}, "southwest": {"lat": 33.7584915, "lng": -84.31180710000001}}, "location_type": "APPROXIMATE"}, "address_components": [{"long_name": "Agnes Scott College", "types": ["point_of_interest", "establishment"], "short_name": "Agnes Scott College"}, {"long_name": "Agnes Scott College", "types": ["establishment"], "short_name": "Agnes Scott College"}, {"long_name": "141", "types": ["street_number"], "short_name": "141"}, {"long_name": "East College Avenue", "types": ["route"], "short_name": "E College Ave"}, {"long_name": "Decatur", "types": ["locality", "political"], "short_name": "Decatur"}, {"long_name": "DeKalb", "types": ["administrative_area_level_2", "political"], "short_name": "Dekalb"}, {"long_name": "Georgia", "types": ["administrative_area_level_1", "political"], "short_name": "GA"}, {"long_name": "United States", "types": ["country", "political"], "short_name": "US"}, {"long_name": "30030", "types": ["postal_code"], "short_name": "30030"}], "formatted_address": "Agnes Scott College, 141 East College Avenue, Decatur, GA 30030, USA", "types": ["point_of_interest", "university", "establishment"]}]}, "longitude": -84.29579969999999, "state": "GA", "latitude": 33.7677676, "id": 1981}, {"city": "Wright Ptrsn Afb", "domain": "afit.af.mil", "name": "Air Force Institute of Technology", "geocoder": {"status": "OK", "results": [{"geometry": {"location": {"lat": 39.7829488, "lng": -84.0824032}, "viewport": {"northeast": {"lat": 39.7915229, "lng": -84.06639580000001}, "southwest": {"lat": 39.7743736, "lng": -84.0984106}}, "location_type": "APPROXIMATE"}, "address_components": [{"long_name": "Air Force Institute of Technology", "types": ["point_of_interest", "establishment"], "short_name": "Air Force Institute of Technology"}, {"long_name": "Wright-Patterson Air Force Base", "types": ["establishment"], "short_name": "Wright-Patterson AFB"}, {"long_name": "2950", "types": ["street_number"], "short_name": "2950"}, {"long_name": "Hobson Way", "types": ["route"], "short_name": "Hobson Way"}, {"long_name": "Wright Ptrsn Afb", "types": ["locality", "political"], "short_name": "Wright Ptrsn Afb"}, {"long_name": "Bath", "types": ["administrative_area_level_3", "political"], "short_name": "Bath"}, {"long_name": "Greene", "types": ["administrative_area_level_2", "political"], "short_name": "Greene"}, {"long_name": "Ohio", "types": ["administrative_area_level_1", "political"], "short_name": "OH"}, {"long_name": "United States", "types": ["country", "political"], "short_name": "US"}, {"long_name": "45433", "types": ["postal_code"], "short_name": "45433"}, {"long_name": "7765", "types": [], "short_name": "7765"}], "formatted_address": "Air Force Institute of Technology, Wright-Patterson Air Force Base, 2950 Hobson Way, Wright Ptrsn Afb, OH 45433, USA", "types": ["point_of_interest", "university", "establishment"]}]}, "longitude": -84.0824032, "state": "OH", "latitude": 39.7829488, "id": 1982}, {"city": "Normal", "domain": "aamu.edu", "name": "Alabama A&M University", "geocoder": {"status": "OK", "results": [{"geometry": {"bounds": {"northeast": {"lat": 35.007889, "lng": -84.888246}, "southwest": {"lat": 30.1941497, "lng": -88.4732269}}, "location": {"lat": 32.3182314, "lng": -86.902298}, "viewport": {"northeast": {"lat": 35.007889, "lng": -84.888246}, "southwest": {"lat": 30.1941663, "lng": -88.4732269}}, "location_type": "APPROXIMATE"}, "address_components": [{"long_name": "Alabama", "types": ["administrative_area_level_1", "political"], "short_name": "AL"}, {"long_name": "United States", "types": ["country", "political"], "short_name": "US"}], "partial_match": true, "formatted_address": "Alabama, USA", "types": ["administrative_area_level_1", "political"]}]}, "longitude": -86.902298, "state": "AL", "latitude": 32.3182314, "id": 1983}, {"city": "Montgomery", "domain": "alasu.edu", "name": "Alabama State University", "geocoder": {"status": "OK", "results": [{"geometry": {"bounds": {"northeast": {"lat": 32.3669222, "lng": -86.28696169999999}, "southwest": {"lat": 32.3594244, "lng": -86.3000187}}, "location": {"lat": 32.3626468, "lng": -86.2907568}, "viewport": {"northeast": {"lat": 32.3669222, "lng": -86.28696169999999}, "southwest": {"lat": 32.3594244, "lng": -86.3000187}}, "location_type": "APPROXIMATE"}, "address_components": [{"long_name": "Alabama State University", "types": ["establishment"], "short_name": "Alabama State University"}, {"long_name": "915", "types": ["street_number"], "short_name": "915"}, {"long_name": "South Jackson Street", "types": ["route"], "short_name": "S Jackson St"}, {"long_name": "Montgomery", "types": ["locality", "political"], "short_name": "Montgomery"}, {"long_name": "Montgomery", "types": ["administrative_area_level_2", "political"], "short_name": "Montgomery"}, {"long_name": "Alabama", "types": ["administrative_area_level_1", "political"], "short_name": "AL"}, {"long_name": "United States", "types": ["country", "political"], "short_name": "US"}, {"long_name": "36104", "types": ["postal_code"], "short_name": "36104"}], "formatted_address": "Alabama State University, 915 South Jackson Street, Montgomery, AL 36104, USA", "types": ["university", "establishment"]}]}, "longitude": -86.2907568, "state": "AL", "latitude": 32.3626468, "id": 1984}, {"city": "Canyon", "domain": "acofi.edu", "name": "Albertson College of Idaho", "geocoder": {"status": "OK", "results": [{"geometry": {"bounds": {"northeast": {"lat": 43.6557087, "lng": -116.6730201}, "southwest": {"lat": 43.6507931, "lng": -116.6805921}}, "location": {"lat": 43.653597, "lng": -116.676876}, "viewport": {"northeast": {"lat": 43.6557087, "lng": -116.6730201}, "southwest": {"lat": 43.6507931, "lng": -116.6805921}}, "location_type": "APPROXIMATE"}, "address_components": [{"long_name": "The College of Idaho", "types": ["establishment"], "short_name": "The College of Idaho"}, {"long_name": "Caldwell", "types": ["locality", "political"], "short_name": "Caldwell"}, {"long_name": "Canyon", "types": ["administrative_area_level_2", "political"], "short_name": "Canyon"}, {"long_name": "Idaho", "types": ["administrative_area_level_1", "political"], "short_name": "ID"}, {"long_name": "United States", "types": ["country", "political"], "short_name": "US"}, {"long_name": "83605", "types": ["postal_code"], "short_name": "83605"}], "partial_match": true, "formatted_address": "The College of Idaho, Caldwell, ID 83605, USA", "types": ["university", "establishment"]}]}, "longitude": -116.676876, "state": "ID", "latitude": 43.653597, "id": 1985}, {"city": "Calhoun", "domain": "albion.edu", "name": "Albion College", "geocoder": {"status": "OK", "results": [{"geometry": {"bounds": {"northeast": {"lat": 42.24815479999999, "lng": -84.7354636}, "southwest": {"lat": 42.2394924, "lng": -84.74705469999999}}, "location": {"lat": 42.2445426, "lng": -84.7461565}, "viewport": {"northeast": {"lat": 42.24815479999999, "lng": -84.7354636}, "southwest": {"lat": 42.2394924, "lng": -84.74705469999999}}, "location_type": "APPROXIMATE"}, "address_components": [{"long_name": "Albion College", "types": ["establishment"], "short_name": "Albion College"}, {"long_name": "611", "types": ["street_number"], "short_name": "611"}, {"long_name": "East Porter Street", "types": ["route"], "short_name": "E Porter St"}, {"long_name": "Albion", "types": ["locality", "political"], "short_name": "Albion"}, {"long_name": "Calhoun", "types": ["administrative_area_level_2", "political"], "short_name": "Calhoun"}, {"long_name": "Michigan", "types": ["administrative_area_level_1", "political"], "short_name": "MI"}, {"long_name": "United States", "types": ["country", "political"], "short_name": "US"}, {"long_name": "49224", "types": ["postal_code"], "short_name": "49224"}], "formatted_address": "Albion College, 611 East Porter Street, Albion, MI 49224, USA", "types": ["university", "establishment"]}]}, "longitude": -84.7461565, "state": "MI", "latitude": 42.2445426, "id": 1986}, {"city": "Allegany", "domain": "alfred.edu", "name": "Alfred University", "geocoder": {"status": "OK", "results": [{"geometry": {"bounds": {"northeast": {"lat": 42.2613924, "lng": -77.7800532}, "southwest": {"lat": 42.2502916, "lng": -77.7908923}}, "location": {"lat": 42.253424, "lng": -77.787959}, "viewport": {"northeast": {"lat": 42.2613924, "lng": -77.7800532}, "southwest": {"lat": 42.2502916, "lng": -77.7908923}}, "location_type": "APPROXIMATE"}, "address_components": [{"long_name": "Alfred University", "types": ["establishment"], "short_name": "Alfred University"}, {"long_name": "Saxon Drive", "types": ["route"], "short_name": "Saxon Dr"}, {"long_name": "Alfred", "types": ["locality", "political"], "short_name": "Alfred"}, {"long_name": "Alfred", "types": ["administrative_area_level_3", "political"], "short_name": "Alfred"}, {"long_name": "Allegany", "types": ["administrative_area_level_2", "political"], "short_name": "Allegany"}, {"long_name": "New York", "types": ["administrative_area_level_1", "political"], "short_name": "NY"}, {"long_name": "United States", "types": ["country", "political"], "short_name": "US"}, {"long_name": "14802", "types": ["postal_code"], "short_name": "14802"}], "formatted_address": "Alfred University, Saxon Drive, Alfred, NY 14802, USA", "types": ["university", "establishment"]}]}, "longitude": -77.787959, "state": "NY", "latitude": 42.253424, "id": 1987}, {"city": "Crawford", "domain": "alleg.edu", "name": "Allegheny College", "geocoder": {"status": "OK", "results": [{"geometry": {"bounds": {"northeast": {"lat": 41.6616046, "lng": -80.14025869999999}, "southwest": {"lat": 41.64628880000001, "lng": -80.15203269999999}}, "location": {"lat": 41.649349, "lng": -80.1449494}, "viewport": {"northeast": {"lat": 41.6523189, "lng": -80.14025869999999}, "southwest": {"lat": 41.64628880000001, "lng": -80.14963879999999}}, "location_type": "APPROXIMATE"}, "address_components": [{"long_name": "Allegheny College", "types": ["establishment"], "short_name": "Allegheny College"}, {"long_name": "520", "types": ["street_number"], "short_name": "520"}, {"long_name": "North Main Street", "types": ["route"], "short_name": "N Main St"}, {"long_name": "Meadville", "types": ["locality", "political"], "short_name": "Meadville"}, {"long_name": "Meadville", "types": ["administrative_area_level_3", "political"], "short_name": "Meadville"}, {"long_name": "Crawford", "types": ["administrative_area_level_2", "political"], "short_name": "Crawford"}, {"long_name": "Pennsylvania", "types": ["administrative_area_level_1", "political"], "short_name": "PA"}, {"long_name": "United States", "types": ["country", "political"], "short_name": "US"}, {"long_name": "16335", "types": ["postal_code"], "short_name": "16335"}], "formatted_address": "Allegheny College, 520 North Main Street, Meadville, PA 16335, USA", "types": ["university", "establishment"]}]}, "longitude": -80.1449494, "state": "PA", "latitude": 41.649349, "id": 1988}, {"city": "Lehigh", "domain": "allencol.edu", "name": "Allentown College of Saint Francis de Sales", "geocoder": {"status": "OK", "results": [{"geometry": {"bounds": {"northeast": {"lat": 40.5435556, "lng": -75.372621}, "southwest": {"lat": 40.5336015, "lng": -75.3827599}}, "location": {"lat": 40.53878599999999, "lng": -75.37921399999999}, "viewport": {"northeast": {"lat": 40.5435556, "lng": -75.372621}, "southwest": {"lat": 40.5336015, "lng": -75.3827599}}, "location_type": "APPROXIMATE"}, "address_components": [{"long_name": "DeSales University", "types": ["establishment"], "short_name": "DeSales University"}, {"long_name": "2755", "types": ["street_number"], "short_name": "2755"}, {"long_name": "Station Avenue", "types": ["route"], "short_name": "Station Ave"}, {"long_name": "Center Valley", "types": ["locality", "political"], "short_name": "Center Valley"}, {"long_name": "Upper Saucon", "types": ["administrative_area_level_3", "political"], "short_name": "Upper Saucon"}, {"long_name": "Lehigh", "types": ["administrative_area_level_2", "political"], "short_name": "Lehigh"}, {"long_name": "Pennsylvania", "types": ["administrative_area_level_1", "political"], "short_name": "PA"}, {"long_name": "United States", "types": ["country", "political"], "short_name": "US"}, {"long_name": "18034", "types": ["postal_code"], "short_name": "18034"}], "formatted_address": "DeSales University, 2755 Station Avenue, Center Valley, PA 18034, USA", "types": ["university", "establishment"]}]}, "longitude": -75.37921399999999, "state": "PA", "latitude": 40.53878599999999, "id": 1989}, {"city": "Gratiot", "domain": "alma.edu", "name": "Alma College", "geocoder": {"status": "OK", "results": [{"geometry": {"bounds": {"northeast": {"lat": 43.38323219999999, "lng": -84.6667949}, "southwest": {"lat": 43.3789884, "lng": -84.67406059999999}}, "location": {"lat": 43.379011, "lng": -84.6699398}, "viewport": {"northeast": {"lat": 43.38323219999999, "lng": -84.6667949}, "southwest": {"lat": 43.3789884, "lng": -84.67406059999999}}, "location_type": "APPROXIMATE"}, "address_components": [{"long_name": "Alma College", "types": ["establishment"], "short_name": "Alma College"}, {"long_name": "614", "types": ["street_number"], "short_name": "614"}, {"long_name": "West Superior Street", "types": ["route"], "short_name": "W Superior St"}, {"long_name": "Alma", "types": ["locality", "political"], "short_name": "Alma"}, {"long_name": "Gratiot", "types": ["administrative_area_level_2", "political"], "short_name": "Gratiot"}, {"long_name": "Michigan", "types": ["administrative_area_level_1", "political"], "short_name": "MI"}, {"long_name": "United States", "types": ["country", "political"], "short_name": "US"}, {"long_name": "48801", "types": ["postal_code"], "short_name": "48801"}], "formatted_address": "Alma College, 614 West Superior Street, Alma, MI 48801, USA", "types": ["university", "establishment"]}]}, "longitude": -84.6699398, "state": "MI", "latitude": 43.379011, "id": 1990}, {"city": "Milwaukee", "domain": "alverno.edu", "name": "Alverno College", "geocoder": {"status": "OK", "results": [{"geometry": {"location": {"lat": 42.98348920000001, "lng": -87.967649}, "viewport": {"northeast": {"lat": 42.9916513, "lng": -87.9516416}, "southwest": {"lat": 42.975326, "lng": -87.9836564}}, "location_type": "APPROXIMATE"}, "address_components": [{"long_name": "ALVERNO COLLEGE", "types": ["point_of_interest", "establishment"], "short_name": "ALVERNO COLLEGE"}, {"long_name": "3400", "types": ["street_number"], "short_name": "3400"}, {"long_name": "South 43rd Street", "types": ["route"], "short_name": "S 43rd St"}, {"long_name": "Alverno", "types": ["neighborhood", "political"], "short_name": "Alverno"}, {"long_name": "Milwaukee", "types": ["locality", "political"], "short_name": "Milwaukee"}, {"long_name": "Milwaukee", "types": ["administrative_area_level_2", "political"], "short_name": "Milwaukee"}, {"long_name": "Wisconsin", "types": ["administrative_area_level_1", "political"], "short_name": "WI"}, {"long_name": "United States", "types": ["country", "political"], "short_name": "US"}, {"long_name": "53234", "types": ["postal_code"], "short_name": "53234"}], "formatted_address": "ALVERNO COLLEGE, 3400 South 43rd Street, Milwaukee, WI 53234, USA", "types": ["point_of_interest", "university", "establishment"]}, {"geometry": {"location": {"lat": 42.9830466, "lng": -87.9632034}, "viewport": {"northeast": {"lat": 42.9843955802915, "lng": -87.96185441970849}, "southwest": {"lat": 42.9816976197085, "lng": -87.96455238029151}}, "location_type": "APPROXIMATE"}, "address_components": [{"long_name": "Alverno College", "types": ["point_of_interest", "establishment"], "short_name": "Alverno College"}, {"long_name": "3400", "types": ["street_number"], "short_name": "3400"}, {"long_name": "S 43rd St", "types": ["route"], "short_name": "S 43rd St"}, {"long_name": "Milwaukee", "types": ["locality", "political"], "short_name": "Milwaukee"}, {"long_name": "WI", "types": ["administrative_area_level_1", "political"], "short_name": "WI"}, {"long_name": "United States", "types": ["country", "political"], "short_name": "US"}, {"long_name": "53219", "types": ["postal_code"], "short_name": "53219"}, {"long_name": "4844", "types": [], "short_name": "4844"}], "formatted_address": "Alverno College, 3400 S 43rd St, Milwaukee, WI 53219, United States", "types": ["point_of_interest", "university", "establishment"]}]}, "longitude": -87.967649, "state": "WI", "latitude": 42.98348920000001, "id": 1991}, {"city": "Westminster", "domain": "amercoastuniv.edu", "name": "American Coastline University", "geocoder": {"status": "OK", "results": [{"geometry": {"location": {"lat": 33.757286, "lng": -117.984911}, "viewport": {"northeast": {"lat": 33.7665622, "lng": -117.9689036}, "southwest": {"lat": 33.7480088, "lng": -118.0009184}}, "location_type": "APPROXIMATE"}, "address_components": [{"long_name": "Coastline Community College", "types": ["point_of_interest", "establishment"], "short_name": "Coastline Community College"}, {"long_name": "14120", "types": ["street_number"], "short_name": "14120"}, {"long_name": "All American Way", "types": ["route"], "short_name": "All American Way"}, {"long_name": "Westminster", "types": ["neighborhood", "political"], "short_name": "Westminster"}, {"long_name": "Westminster", "types": ["locality", "political"], "short_name": "Westminster"}, {"long_name": "Orange", "types": ["administrative_area_level_2", "political"], "short_name": "Orange"}, {"long_name": "California", "types": ["administrative_area_level_1", "political"], "short_name": "CA"}, {"long_name": "United States", "types": ["country", "political"], "short_name": "US"}, {"long_name": "92683", "types": ["postal_code"], "short_name": "92683"}, {"long_name": "4857", "types": [], "short_name": "4857"}], "partial_match": true, "formatted_address": "Coastline Community College, 14120 All American Way, Westminster, CA 92683, USA", "types": ["point_of_interest", "university", "establishment"]}]}, "longitude": -117.984911, "state": "CA", "latitude": 33.757286, "id": 1992}, {"city": "Maricopa", "domain": "t-bird.edu", "name": "American Graduate School of International Management", "geocoder": {"status": "OK", "results": [{"geometry": {"bounds": {"northeast": {"lat": 33.6251842, "lng": -112.1795787}, "southwest": {"lat": 33.6200652, "lng": -112.1856755}}, "location": {"lat": 33.6223904, "lng": -112.1823993}, "viewport": {"northeast": {"lat": 33.6251842, "lng": -112.1795787}, "southwest": {"lat": 33.6200652, "lng": -112.1856755}}, "location_type": "APPROXIMATE"}, "address_components": [{"long_name": "Thunderbird School of Global Management", "types": ["establishment"], "short_name": "Thunderbird School of Global Management"}, {"long_name": "1", "types": ["street_number"], "short_name": "1"}, {"long_name": "Global Place", "types": ["route"], "short_name": "Global Pl"}, {"long_name": "Glendale", "types": ["locality", "political"], "short_name": "Glendale"}, {"long_name": "Maricopa", "types": ["administrative_area_level_2", "political"], "short_name": "Maricopa"}, {"long_name": "Arizona", "types": ["administrative_area_level_1", "political"], "short_name": "AZ"}, {"long_name": "United States", "types": ["country", "political"], "short_name": "US"}, {"long_name": "85306", "types": ["postal_code"], "short_name": "85306"}], "partial_match": true, "formatted_address": "Thunderbird School of Global Management, 1 Global Place, Glendale, AZ 85306, USA", "types": ["university", "establishment"]}]}, "longitude": -112.1823993, "state": "AZ", "latitude": 33.6223904, "id": 1993}, {"city": "Hampden", "domain": "aic.edu", "name": "American International College", "geocoder": {"status": "OK", "results": [{"geometry": {"location": {"lat": 42.1128526, "lng": -72.55714420000001}, "location_type": "APPROXIMATE", "viewport": {"northeast": {"lat": 42.1150324, "lng": -72.5543467}, "southwest": {"lat": 42.1114617, "lng": -72.5605908}}, "bounds": {"northeast": {"lat": 42.1150324, "lng": -72.5543467}, "southwest": {"lat": 42.1114617, "lng": -72.5605908}}}, "address_components": [{"long_name": "American International College", "short_name": "American International College", "types": ["establishment"]}, {"long_name": "State Street", "short_name": "State St", "types": ["route"]}, {"long_name": "Upper Hill", "short_name": "Upper Hill", "types": ["neighborhood", "political"]}, {"long_name": "Springfield", "short_name": "Springfield", "types": ["locality", "political"]}, {"long_name": "Hampden", "short_name": "Hampden", "types": ["administrative_area_level_2", "political"]}, {"long_name": "Massachusetts", "short_name": "MA", "types": ["administrative_area_level_1", "political"]}, {"long_name": "United States", "short_name": "US", "types": ["country", "political"]}, {"long_name": "01109", "short_name": "01109", "types": ["postal_code"]}], "formatted_address": "American International College, State Street, Springfield, MA 01109, USA", "types": ["university", "establishment"]}]}, "longitude": -72.55714420000001, "state": "MA", "latitude": 42.1128526, "id": 1994}, {"city": "Washington", "domain": "american.edu", "name": "American University", "geocoder": {"status": "OK", "results": [{"geometry": {"location": {"lat": 38.9367771, "lng": -77.0901545}, "location_type": "APPROXIMATE", "viewport": {"northeast": {"lat": 38.9401138, "lng": -77.0846217}, "southwest": {"lat": 38.934318, "lng": -77.09373579999999}}, "bounds": {"northeast": {"lat": 38.9401138, "lng": -77.0846217}, "southwest": {"lat": 38.934318, "lng": -77.09373579999999}}}, "address_components": [{"long_name": "American University", "short_name": "American University", "types": ["establishment"]}, {"long_name": "4400", "short_name": "4400", "types": ["street_number"]}, {"long_name": "Massachusetts Avenue Northwest", "short_name": "Massachusetts Avenue Northwest", "types": ["route"]}, {"long_name": "Washington", "short_name": "Washington", "types": ["locality", "political"]}, {"long_name": "District of Columbia", "short_name": "DC", "types": ["administrative_area_level_1", "political"]}, {"long_name": "United States", "short_name": "US", "types": ["country", "political"]}, {"long_name": "20016", "short_name": "20016", "types": ["postal_code"]}], "formatted_address": "American University, 4400 Massachusetts Avenue Northwest, Washington, DC 20016, USA", "types": ["university", "establishment"]}]}, "longitude": -77.0901545, "state": "DC", "latitude": 38.9367771, "id": 1995}, {"city": "Hampshire", "domain": "amherst.edu", "name": "Amherst College", "geocoder": {"status": "OK", "results": [{"geometry": {"location": {"lat": 42.3720228, "lng": -72.51437279999999}, "location_type": "APPROXIMATE", "viewport": {"northeast": {"lat": 42.37829259999999, "lng": -72.5103905}, "southwest": {"lat": 42.3662907, "lng": -72.52892589999999}}, "bounds": {"northeast": {"lat": 42.37829259999999, "lng": -72.5103905}, "southwest": {"lat": 42.3662907, "lng": -72.52892589999999}}}, "address_components": [{"long_name": "Amherst College", "short_name": "Amherst College", "types": ["establishment"]}, {"long_name": "220", "short_name": "220", "types": ["street_number"]}, {"long_name": "South Pleasant Street", "short_name": "S Pleasant St", "types": ["route"]}, {"long_name": "Amherst Center", "short_name": "Amherst Center", "types": ["sublocality", "political"]}, {"long_name": "Amherst", "short_name": "Amherst", "types": ["locality", "political"]}, {"long_name": "Amherst", "short_name": "Amherst", "types": ["administrative_area_level_3", "political"]}, {"long_name": "Hampshire", "short_name": "Hampshire", "types": ["administrative_area_level_2", "political"]}, {"long_name": "Massachusetts", "short_name": "MA", "types": ["administrative_area_level_1", "political"]}, {"long_name": "United States", "short_name": "US", "types": ["country", "political"]}, {"long_name": "01002", "short_name": "01002", "types": ["postal_code"]}], "formatted_address": "Amherst College, 220 South Pleasant Street, Amherst, MA 01002, USA", "types": ["university", "establishment"]}]}, "longitude": -72.51437279999999, "state": "MA", "latitude": 42.3720228, "id": 1996}, {"city": "Berrien Springs", "domain": "andrews.edu", "name": "Andrews University", "geocoder": {"status": "OK", "results": [{"geometry": {"bounds": {"northeast": {"lat": 41.9858126, "lng": -86.34872399999999}, "southwest": {"lat": 41.9448246, "lng": -86.37381429999999}}, "location": {"lat": 41.9564842, "lng": -86.3591598}, "viewport": {"northeast": {"lat": 41.9858126, "lng": -86.34872399999999}, "southwest": {"lat": 41.9448246, "lng": -86.37381429999999}}, "location_type": "APPROXIMATE"}, "address_components": [{"long_name": "Andrews University", "types": ["establishment"], "short_name": "Andrews University"}, {"long_name": "Berrien Springs", "types": ["locality", "political"], "short_name": "Berrien Springs"}, {"long_name": "Berrien", "types": ["administrative_area_level_2", "political"], "short_name": "Berrien"}, {"long_name": "Michigan", "types": ["administrative_area_level_1", "political"], "short_name": "MI"}, {"long_name": "United States", "types": ["country", "political"], "short_name": "US"}, {"long_name": "49104", "types": ["postal_code"], "short_name": "49104"}, {"long_name": "0001", "types": [], "short_name": "0001"}], "formatted_address": "Andrews University, Berrien Springs, MI 49104, USA", "types": ["university", "establishment"]}, {"geometry": {"bounds": {"northeast": {"lat": 41.9569491, "lng": -86.3591508}, "southwest": {"lat": 41.9447921, "lng": -86.3733053}}, "location": {"lat": 41.9504951, "lng": -86.36517740000001}, "viewport": {"northeast": {"lat": 41.9569491, "lng": -86.3591508}, "southwest": {"lat": 41.9447921, "lng": -86.3733053}}, "location_type": "APPROXIMATE"}, "address_components": [{"long_name": "Andrews University", "types": ["establishment"], "short_name": "Andrews University"}, {"long_name": "8975", "types": ["street_number"], "short_name": "8975"}, {"long_name": "Old U.S. 31", "types": ["route"], "short_name": "Old U.S. 31"}, {"long_name": "Berrien Springs", "types": ["locality", "political"], "short_name": "Berrien Springs"}, {"long_name": "Berrien", "types": ["administrative_area_level_2", "political"], "short_name": "Berrien"}, {"long_name": "Michigan", "types": ["administrative_area_level_1", "political"], "short_name": "MI"}, {"long_name": "United States", "types": ["country", "political"], "short_name": "US"}, {"long_name": "49104", "types": ["postal_code"], "short_name": "49104"}], "formatted_address": "Andrews University, 8975 Old U.S. 31, Berrien Springs, MI 49104, USA", "types": ["university", "establishment"]}]}, "longitude": -86.3591598, "state": "MI", "latitude": 41.9564842, "id": 1997}, {"city": "Tom Green", "domain": "angelo.edu", "name": "Angelo State University", "geocoder": {"status": "OK", "results": [{"geometry": {"bounds": {"northeast": {"lat": 31.4435886, "lng": -100.4491387}, "southwest": {"lat": 31.4335956, "lng": -100.4697485}}, "location": {"lat": 31.44317199999999, "lng": -100.465807}, "viewport": {"northeast": {"lat": 31.4435886, "lng": -100.4491387}, "southwest": {"lat": 31.4335956, "lng": -100.4697485}}, "location_type": "APPROXIMATE"}, "address_components": [{"long_name": "Angelo State University", "types": ["establishment"], "short_name": "Angelo State University"}, {"long_name": "Northwest Ave", "types": ["route"], "short_name": "Northwest Ave"}, {"long_name": "San Angelo", "types": ["locality", "political"], "short_name": "San Angelo"}, {"long_name": "Tom Green", "types": ["administrative_area_level_2", "political"], "short_name": "Tom Green"}, {"long_name": "Texas", "types": ["administrative_area_level_1", "political"], "short_name": "TX"}, {"long_name": "United States", "types": ["country", "political"], "short_name": "US"}, {"long_name": "76909", "types": ["postal_code"], "short_name": "76909"}], "formatted_address": "Angelo State University, Northwest Ave, San Angelo, TX 76909, USA", "types": ["university", "establishment"]}]}, "longitude": -100.465807, "state": "TX", "latitude": 31.44317199999999, "id": 1998}, {"city": "Yellow Springs", "domain": "college.antioch.edu", "name": "Antioch College", "geocoder": {"status": "OK", "results": [{"geometry": {"bounds": {"northeast": {"lat": 39.8009787, "lng": -83.884967}, "southwest": {"lat": 39.7973053, "lng": -83.8899014}}, "location": {"lat": 39.7993346, "lng": -83.8877186}, "viewport": {"northeast": {"lat": 39.8009787, "lng": -83.884967}, "southwest": {"lat": 39.7973053, "lng": -83.8899014}}, "location_type": "APPROXIMATE"}, "address_components": [{"long_name": "Antioch College", "types": ["establishment"], "short_name": "Antioch College"}, {"long_name": "1", "types": ["street_number"], "short_name": "1"}, {"long_name": "Morgan Place", "types": ["route"], "short_name": "Morgan Pl"}, {"long_name": "Yellow Springs", "types": ["locality", "political"], "short_name": "Yellow Springs"}, {"long_name": "Miami", "types": ["administrative_area_level_3", "political"], "short_name": "Miami"}, {"long_name": "Greene", "types": ["administrative_area_level_2", "political"], "short_name": "Greene"}, {"long_name": "Ohio", "types": ["administrative_area_level_1", "political"], "short_name": "OH"}, {"long_name": "United States", "types": ["country", "political"], "short_name": "US"}, {"long_name": "45387", "types": ["postal_code"], "short_name": "45387"}, {"long_name": "1607", "types": [], "short_name": "1607"}], "formatted_address": "Antioch College, 1 Morgan Place, Yellow Springs, OH 45387, USA", "types": ["university", "establishment"]}]}, "longitude": -83.8877186, "state": "OH", "latitude": 39.7993346, "id": 1999}, {"city": "Keene", "domain": "antiochne.edu", "name": "Antioch New England", "geocoder": {"status": "OK", "results": [{"geometry": {"location": {"lat": 42.9306874, "lng": -72.28340010000001}, "viewport": {"northeast": {"lat": 42.9388565, "lng": -72.2673927}, "southwest": {"lat": 42.9225172, "lng": -72.2994075}}, "location_type": "APPROXIMATE"}, "address_components": [{"long_name": "Antioch New England", "types": ["point_of_interest", "establishment"], "short_name": "Antioch New England"}, {"long_name": "149", "types": ["street_number"], "short_name": "149"}, {"long_name": "Emerald Street", "types": ["route"], "short_name": "Emerald St"}, {"long_name": "Keene", "types": ["locality", "political"], "short_name": "Keene"}, {"long_name": "Cheshire", "types": ["administrative_area_level_2", "political"], "short_name": "Cheshire"}, {"long_name": "New Hampshire", "types": ["administrative_area_level_1", "political"], "short_name": "NH"}, {"long_name": "United States", "types": ["country", "political"], "short_name": "US"}, {"long_name": "03431", "types": ["postal_code"], "short_name": "03431"}, {"long_name": "3611", "types": [], "short_name": "3611"}], "formatted_address": "Antioch New England, 149 Emerald Street, Keene, NH 03431, USA", "types": ["point_of_interest", "establishment"]}]}, "longitude": -72.28340010000001, "state": "NH", "latitude": 42.9306874, "id": 2000}, {"city": "Los Angeles", "domain": "antiochla.edu", "name": "Antioch University-Los Angeles", "geocoder": {"status": "OK", "results": [{"geometry": {"location": {"lat": 33.9885601, "lng": -118.3847289}, "viewport": {"northeast": {"lat": 33.9978112, "lng": -118.3687215}, "southwest": {"lat": 33.979308, "lng": -118.4007363}}, "location_type": "APPROXIMATE"}, "address_components": [{"long_name": "Antioch University", "types": ["point_of_interest", "establishment"], "short_name": "Antioch University"}, {"long_name": "400", "types": ["street_number"], "short_name": "400"}, {"long_name": "Corporate Pointe", "types": ["route"], "short_name": "Corporate Pointe"}, {"long_name": "Fox Hills", "types": ["neighborhood", "political"], "short_name": "Fox Hills"}, {"long_name": "Culver City", "types": ["locality", "political"], "short_name": "Culver City"}, {"long_name": "Los Angeles", "types": ["administrative_area_level_3", "political"], "short_name": "Los Angeles"}, {"long_name": "Los Angeles", "types": ["administrative_area_level_2", "political"], "short_name": "Los Angeles"}, {"long_name": "California", "types": ["administrative_area_level_1", "political"], "short_name": "CA"}, {"long_name": "United States", "types": ["country", "political"], "short_name": "US"}, {"long_name": "90230", "types": ["postal_code"], "short_name": "90230"}], "formatted_address": "Antioch University, 400 Corporate Pointe, Culver City, CA 90230, USA", "types": ["point_of_interest", "university", "establishment"]}]}, "longitude": -118.3847289, "state": "CA", "latitude": 33.9885601, "id": 2001}, {"city": "Seattle", "domain": "seattleantioch.edu", "name": "Antioch University-Seattle", "geocoder": {"status": "OK", "results": [{"geometry": {"location": {"lat": 47.6173152, "lng": -122.3427195}, "viewport": {"northeast": {"lat": 47.62483599999999, "lng": -122.3267121}, "southwest": {"lat": 47.6097933, "lng": -122.3587269}}, "location_type": "APPROXIMATE"}, "address_components": [{"long_name": "Antioch University Seattle", "types": ["point_of_interest", "establishment"], "short_name": "Antioch University Seattle"}, {"long_name": "2326", "types": ["street_number"], "short_name": "2326"}, {"long_name": "6th Avenue", "types": ["route"], "short_name": "6th Ave"}, {"long_name": "Belltown", "types": ["neighborhood", "political"], "short_name": "Belltown"}, {"long_name": "Seattle", "types": ["locality", "political"], "short_name": "Seattle"}, {"long_name": "King", "types": ["administrative_area_level_2", "political"], "short_name": "King"}, {"long_name": "Washington", "types": ["administrative_area_level_1", "political"], "short_name": "WA"}, {"long_name": "United States", "types": ["country", "political"], "short_name": "US"}, {"long_name": "98121", "types": ["postal_code"], "short_name": "98121"}, {"long_name": "1814", "types": [], "short_name": "1814"}], "formatted_address": "Antioch University Seattle, 2326 6th Avenue, Seattle, WA 98121, USA", "types": ["point_of_interest", "university", "establishment"]}]}, "longitude": -122.3427195, "state": "WA", "latitude": 47.6173152, "id": 2002}, {"city": "Watauga", "domain": "appstate.edu", "name": "Appalachian State University", "geocoder": {"status": "OK", "results": [{"geometry": {"bounds": {"northeast": {"lat": 36.2177488, "lng": -81.6567967}, "southwest": {"lat": 36.2047281, "lng": -81.6943864}}, "location": {"lat": 36.21078920000001, "lng": -81.67735379999999}, "viewport": {"northeast": {"lat": 36.2177488, "lng": -81.67370559999999}, "southwest": {"lat": 36.2081893, "lng": -81.6943864}}, "location_type": "APPROXIMATE"}, "address_components": [{"long_name": "Appalachian State University", "types": ["establishment"], "short_name": "Appalachian State University"}, {"long_name": "287", "types": ["street_number"], "short_name": "287"}, {"long_name": "Rivers Street", "types": ["route"], "short_name": "Rivers St"}, {"long_name": "Boone", "types": ["locality", "political"], "short_name": "Boone"}, {"long_name": "Watauga", "types": ["administrative_area_level_2", "political"], "short_name": "Watauga"}, {"long_name": "North Carolina", "types": ["administrative_area_level_1", "political"], "short_name": "NC"}, {"long_name": "United States", "types": ["country", "political"], "short_name": "US"}, {"long_name": "28608", "types": ["postal_code"], "short_name": "28608"}], "formatted_address": "Appalachian State University, 287 Rivers Street, Boone, NC 28608, USA", "types": ["university", "establishment"]}]}, "longitude": -81.67735379999999, "state": "NC", "latitude": 36.21078920000001, "id": 2003}, {"city": "Kent", "domain": "aquinas.edu", "name": "Aquinas College", "geocoder": {"status": "OK", "results": [{"geometry": {"bounds": {"northeast": {"lat": 42.9627862, "lng": -85.62073439999999}, "southwest": {"lat": 42.95801660000001, "lng": -85.6326514}}, "location": {"lat": 42.960615, "lng": -85.626164}, "viewport": {"northeast": {"lat": 42.9627862, "lng": -85.62073439999999}, "southwest": {"lat": 42.95801660000001, "lng": -85.6326514}}, "location_type": "APPROXIMATE"}, "address_components": [{"long_name": "Aquinas College", "types": ["establishment"], "short_name": "Aquinas College"}, {"long_name": "1607", "types": ["street_number"], "short_name": "1607"}, {"long_name": "Robinson Road Southeast", "types": ["route"], "short_name": "Robinson Rd SE"}, {"long_name": "Grand Rapids", "types": ["locality", "political"], "short_name": "Grand Rapids"}, {"long_name": "Kent", "types": ["administrative_area_level_2", "political"], "short_name": "Kent"}, {"long_name": "Michigan", "types": ["administrative_area_level_1", "political"], "short_name": "MI"}, {"long_name": "United States", "types": ["country", "political"], "short_name": "US"}, {"long_name": "49506", "types": ["postal_code"], "short_name": "49506"}], "formatted_address": "Aquinas College, 1607 Robinson Road Southeast, Grand Rapids, MI 49506, USA", "types": ["university", "establishment"]}]}, "longitude": -85.626164, "state": "MI", "latitude": 42.960615, "id": 2004}, {"city": "Tempe", "domain": "asu.edu", "name": "Arizona State University", "geocoder": {"status": "OK", "results": [{"geometry": {"bounds": {"northeast": {"lat": 33.4334191, "lng": -111.9090906}, "southwest": {"lat": 33.4109304, "lng": -111.9414379}}, "location": {"lat": 33.4174564, "lng": -111.935907}, "viewport": {"northeast": {"lat": 33.4334191, "lng": -111.9090906}, "southwest": {"lat": 33.4109304, "lng": -111.9414379}}, "location_type": "APPROXIMATE"}, "address_components": [{"long_name": "Arizona State University", "types": ["establishment"], "short_name": "Arizona State University"}, {"long_name": "1151", "types": ["street_number"], "short_name": "1151"}, {"long_name": "South Forest Avenue", "types": ["route"], "short_name": "S Forest Ave"}, {"long_name": "Tempe", "types": ["locality", "political"], "short_name": "Tempe"}, {"long_name": "Maricopa", "types": ["administrative_area_level_2", "political"], "short_name": "Maricopa"}, {"long_name": "Arizona", "types": ["administrative_area_level_1", "political"], "short_name": "AZ"}, {"long_name": "United States", "types": ["country", "political"], "short_name": "US"}, {"long_name": "85287", "types": ["postal_code"], "short_name": "85287"}, {"long_name": "0001", "types": [], "short_name": "0001"}], "formatted_address": "Arizona State University, 1151 South Forest Avenue, Tempe, AZ 85287, USA", "types": ["university", "establishment"]}]}, "longitude": -111.935907, "state": "AZ", "latitude": 33.4174564, "id": 2005}, {"city": "Tempe", "domain": "west.asu.edu", "name": "Arizona State University West", "geocoder": {"status": "OK", "results": [{"geometry": {"bounds": {"northeast": {"lat": 33.4334191, "lng": -111.9090906}, "southwest": {"lat": 33.4109304, "lng": -111.9414379}}, "location": {"lat": 33.4174564, "lng": -111.935907}, "viewport": {"northeast": {"lat": 33.4334191, "lng": -111.9090906}, "southwest": {"lat": 33.4109304, "lng": -111.9414379}}, "location_type": "APPROXIMATE"}, "address_components": [{"long_name": "Arizona State University", "types": ["establishment"], "short_name": "Arizona State University"}, {"long_name": "1151", "types": ["street_number"], "short_name": "1151"}, {"long_name": "South Forest Avenue", "types": ["route"], "short_name": "S Forest Ave"}, {"long_name": "Tempe", "types": ["locality", "political"], "short_name": "Tempe"}, {"long_name": "Maricopa", "types": ["administrative_area_level_2", "political"], "short_name": "Maricopa"}, {"long_name": "Arizona", "types": ["administrative_area_level_1", "political"], "short_name": "AZ"}, {"long_name": "United States", "types": ["country", "political"], "short_name": "US"}, {"long_name": "85287", "types": ["postal_code"], "short_name": "85287"}, {"long_name": "0001", "types": [], "short_name": "0001"}], "partial_match": true, "formatted_address": "Arizona State University, 1151 South Forest Avenue, Tempe, AZ 85287, USA", "types": ["university", "establishment"]}]}, "longitude": -111.935907, "state": "AZ", "latitude": 33.4174564, "id": 2006}, {"city": "Yuma", "domain": "awc.cc.az.us", "name": "Arizona Western College", "geocoder": {"status": "OK", "results": [{"geometry": {"location": {"lat": 32.689592, "lng": -114.495134}, "location_type": "APPROXIMATE", "viewport": {"northeast": {"lat": 32.6927311, "lng": -114.490033}, "southwest": {"lat": 32.6848443, "lng": -114.5001816}}, "bounds": {"northeast": {"lat": 32.6927311, "lng": -114.490033}, "southwest": {"lat": 32.6848443, "lng": -114.5001816}}}, "address_components": [{"long_name": "Arizona Western College", "short_name": "Arizona Western College", "types": ["establishment"]}, {"long_name": "2020", "short_name": "2020", "types": ["street_number"]}, {"long_name": "South Avenue 8 East", "short_name": "S Ave 8 E", "types": ["route"]}, {"long_name": "Yuma", "short_name": "Yuma", "types": ["locality", "political"]}, {"long_name": "Yuma", "short_name": "Yuma", "types": ["administrative_area_level_2", "political"]}, {"long_name": "Arizona", "short_name": "AZ", "types": ["administrative_area_level_1", "political"]}, {"long_name": "United States", "short_name": "US", "types": ["country", "political"]}, {"long_name": "85365", "short_name": "85365", "types": ["postal_code"]}], "formatted_address": "Arizona Western College, 2020 South Avenue 8 East, Yuma, AZ 85365, USA", "types": ["university", "establishment"]}]}, "longitude": -114.495134, "state": "AZ", "latitude": 32.689592, "id": 2007}, {"city": "Craighead", "domain": "astate.edu", "name": "Arkansas State University, Jonesboro", "geocoder": {"status": "OK", "results": [{"geometry": {"location": {"lat": 35.8435341, "lng": -90.6808373}, "location_type": "APPROXIMATE", "viewport": {"northeast": {"lat": 35.8526113, "lng": -90.6648499}, "southwest": {"lat": 35.83487179999999, "lng": -90.68625779999999}}, "bounds": {"northeast": {"lat": 35.8526113, "lng": -90.6648499}, "southwest": {"lat": 35.83487179999999, "lng": -90.68625779999999}}}, "address_components": [{"long_name": "Arkansas State University", "short_name": "Arkansas State University", "types": ["establishment"]}, {"long_name": "2105", "short_name": "2105", "types": ["street_number"]}, {"long_name": "Aggie Road", "short_name": "Aggie Rd", "types": ["route"]}, {"long_name": "Jonesboro", "short_name": "Jonesboro", "types": ["locality", "political"]}, {"long_name": "Craighead", "short_name": "Craighead", "types": ["administrative_area_level_2", "political"]}, {"long_name": "Arkansas", "short_name": "AR", "types": ["administrative_area_level_1", "political"]}, {"long_name": "United States", "short_name": "US", "types": ["country", "political"]}, {"long_name": "72401", "short_name": "72401", "types": ["postal_code"]}], "formatted_address": "Arkansas State University, 2105 Aggie Road, Jonesboro, AR 72401, USA", "types": ["university", "establishment"]}, {"geometry": {"location": {"lat": 35.8428473, "lng": -90.6770179}, "location_type": "APPROXIMATE", "viewport": {"northeast": {"lat": 35.8531753, "lng": -90.6648048}, "southwest": {"lat": 35.8348853, "lng": -90.6842537}}, "bounds": {"northeast": {"lat": 35.8531753, "lng": -90.6648048}, "southwest": {"lat": 35.8348853, "lng": -90.6842537}}}, "address_components": [{"long_name": "Arkansas State University", "short_name": "Arkansas State University", "types": ["neighborhood", "political"]}, {"long_name": "Jonesboro", "short_name": "Jonesboro", "types": ["locality", "political"]}, {"long_name": "Jonesboro", "short_name": "Jonesboro", "types": ["administrative_area_level_3", "political"]}, {"long_name": "Craighead", "short_name": "Craighead", "types": ["administrative_area_level_2", "political"]}, {"long_name": "Arkansas", "short_name": "AR", "types": ["administrative_area_level_1", "political"]}, {"long_name": "United States", "short_name": "US", "types": ["country", "political"]}, {"long_name": "72401", "short_name": "72401", "types": ["postal_code"]}], "formatted_address": "Arkansas State University, Jonesboro, AR 72401, USA", "types": ["neighborhood", "political"]}]}, "longitude": -90.6808373, "state": "AR", "latitude": 35.8435341, "id": 2008}, {"city": "Russellville", "domain": "atu.edu", "name": "Arkansas Tech University", "geocoder": {"status": "OK", "results": [{"geometry": {"location": {"lat": 35.2950751, "lng": -93.13865709999999}, "location_type": "APPROXIMATE", "viewport": {"northeast": {"lat": 35.2984543, "lng": -93.1311504}, "southwest": {"lat": 35.2894823, "lng": -93.1404015}}, "bounds": {"northeast": {"lat": 35.2984543, "lng": -93.1311504}, "southwest": {"lat": 35.2894823, "lng": -93.1404015}}}, "address_components": [{"long_name": "Arkansas Tech University", "short_name": "Arkansas Tech University", "types": ["establishment"]}, {"long_name": "1310", "short_name": "1310", "types": ["street_number"]}, {"long_name": "North El Paso Avenue", "short_name": "North El Paso Avenue", "types": ["route"]}, {"long_name": "Russellville", "short_name": "Russellville", "types": ["locality", "political"]}, {"long_name": "AR", "short_name": "AR", "types": ["administrative_area_level_1", "political"]}, {"long_name": "United States", "short_name": "US", "types": ["country", "political"]}, {"long_name": "72801", "short_name": "72801", "types": ["postal_code"]}, {"long_name": "8814", "short_name": "8814", "types": []}], "formatted_address": "Arkansas Tech University, 1310 North El Paso Avenue, Russellville, AR 72801, United States", "types": ["university", "establishment"]}]}, "longitude": -93.13865709999999, "state": "AR", "latitude": 35.2950751, "id": 2009}, {"city": "Chatham", "domain": "armstrong.edu", "name": "Armstrong State College", "geocoder": {"status": "OK", "results": [{"geometry": {"location": {"lat": 31.9809788, "lng": -81.1626256}, "viewport": {"northeast": {"lat": 31.9904428, "lng": -81.14661819999999}, "southwest": {"lat": 31.9715138, "lng": -81.17863299999999}}, "location_type": "APPROXIMATE"}, "address_components": [{"long_name": "Armstrong Atlantic State University", "short_name": "Armstrong Atlantic State University", "types": ["point_of_interest", "establishment"]}, {"long_name": "Armstrong Atlantic State University Bookstore", "short_name": "Armstrong Atlantic State University Bookstore", "types": ["establishment"]}, {"long_name": "11935", "short_name": "11935", "types": ["street_number"]}, {"long_name": "Abercorn Street", "short_name": "Abercorn St", "types": ["route"]}, {"long_name": "Southside", "short_name": "Southside", "types": ["neighborhood", "political"]}, {"long_name": "Savannah", "short_name": "Savannah", "types": ["locality", "political"]}, {"long_name": "Savannah", "short_name": "Savannah", "types": ["administrative_area_level_3", "political"]}, {"long_name": "Chatham", "short_name": "Chatham", "types": ["administrative_area_level_2", "political"]}, {"long_name": "Georgia", "short_name": "GA", "types": ["administrative_area_level_1", "political"]}, {"long_name": "United States", "short_name": "US", "types": ["country", "political"]}, {"long_name": "31419", "short_name": "31419", "types": ["postal_code"]}], "formatted_address": "Armstrong Atlantic State University, Armstrong Atlantic State University Bookstore, 11935 Abercorn Street, Savannah, GA 31419, USA", "types": ["point_of_interest", "university", "establishment"]}]}, "longitude": -81.1626256, "state": "GA", "latitude": 31.9809788, "id": 2010}, {"city": "Ashland", "domain": "ashland.edu", "name": "Ashland University", "geocoder": {"status": "OK", "results": [{"geometry": {"location": {"lat": 40.860836, "lng": -82.320438}, "location_type": "APPROXIMATE", "viewport": {"northeast": {"lat": 40.8654358, "lng": -82.3180691}, "southwest": {"lat": 40.8580462, "lng": -82.3281739}}, "bounds": {"northeast": {"lat": 40.8654358, "lng": -82.3180691}, "southwest": {"lat": 40.8580462, "lng": -82.3281739}}}, "address_components": [{"long_name": "Ashland University", "short_name": "Ashland University", "types": ["establishment"]}, {"long_name": "401", "short_name": "401", "types": ["street_number"]}, {"long_name": "College Avenue", "short_name": "College Ave", "types": ["route"]}, {"long_name": "Ashland", "short_name": "Ashland", "types": ["locality", "political"]}, {"long_name": "Ashland", "short_name": "Ashland", "types": ["administrative_area_level_2", "political"]}, {"long_name": "Ohio", "short_name": "OH", "types": ["administrative_area_level_1", "political"]}, {"long_name": "United States", "short_name": "US", "types": ["country", "political"]}, {"long_name": "44805", "short_name": "44805", "types": ["postal_code"]}, {"long_name": "3799", "short_name": "3799", "types": []}], "formatted_address": "Ashland University, 401 College Avenue, Ashland, OH 44805, USA", "types": ["university", "establishment"]}]}, "longitude": -82.320438, "state": "OH", "latitude": 40.860836, "id": 2011}, {"city": "Worcester", "domain": "assumption.edu", "name": "Assumption College", "geocoder": {"status": "OK", "results": [{"geometry": {"bounds": {"northeast": {"lat": 42.2983111, "lng": -71.8236132}, "southwest": {"lat": 42.2893163, "lng": -71.83397409999999}}, "location": {"lat": 42.2907398, "lng": -71.829026}, "viewport": {"northeast": {"lat": 42.2983111, "lng": -71.8236132}, "southwest": {"lat": 42.2893163, "lng": -71.83397409999999}}, "location_type": "APPROXIMATE"}, "address_components": [{"long_name": "Assumption College", "types": ["establishment"], "short_name": "Assumption College"}, {"long_name": "500", "types": ["street_number"], "short_name": "500"}, {"long_name": "Salisbury Street", "types": ["route"], "short_name": "Salisbury St"}, {"long_name": "Worcester", "types": ["locality", "political"], "short_name": "Worcester"}, {"long_name": "Worcester", "types": ["administrative_area_level_2", "political"], "short_name": "Worcester"}, {"long_name": "Massachusetts", "types": ["administrative_area_level_1", "political"], "short_name": "MA"}, {"long_name": "United States", "types": ["country", "political"], "short_name": "US"}, {"long_name": "01609", "types": ["postal_code"], "short_name": "01609"}, {"long_name": "1296", "types": [], "short_name": "1296"}], "formatted_address": "Assumption College, 500 Salisbury Street, Worcester, MA 01609, USA", "types": ["university", "establishment"]}]}, "longitude": -71.829026, "state": "MA", "latitude": 42.2907398, "id": 2012}, {"city": "Auburn", "domain": "auburn.edu", "name": "Auburn University", "geocoder": {"status": "OK", "results": [{"geometry": {"bounds": {"northeast": {"lat": 32.6065111, "lng": -85.4810621}, "southwest": {"lat": 32.592762, "lng": -85.494428}}, "location": {"lat": 32.6033726, "lng": -85.48611149999999}, "viewport": {"northeast": {"lat": 32.6065111, "lng": -85.4810621}, "southwest": {"lat": 32.592762, "lng": -85.494428}}, "location_type": "APPROXIMATE"}, "address_components": [{"long_name": "Auburn University", "types": ["sublocality", "political"], "short_name": "Auburn University"}, {"long_name": "Auburn", "types": ["locality", "political"], "short_name": "Auburn"}, {"long_name": "Lee", "types": ["administrative_area_level_2", "political"], "short_name": "Lee"}, {"long_name": "Alabama", "types": ["administrative_area_level_1", "political"], "short_name": "AL"}, {"long_name": "United States", "types": ["country", "political"], "short_name": "US"}], "formatted_address": "Auburn University, Auburn, AL, USA", "types": ["sublocality", "political"]}, {"geometry": {"location": {"lat": 32.604927, "lng": -85.4867787}, "viewport": {"northeast": {"lat": 32.6062759802915, "lng": -85.4854297197085}, "southwest": {"lat": 32.6035780197085, "lng": -85.48812768029151}}, "location_type": "APPROXIMATE"}, "address_components": [{"long_name": "Auburn University", "types": ["point_of_interest", "establishment"], "short_name": "Auburn University"}, {"long_name": "Auburn University", "types": ["establishment"], "short_name": "Auburn University"}, {"long_name": "200", "types": ["street_number"], "short_name": "200"}, {"long_name": "Broun Hall", "types": ["route"], "short_name": "Broun Hall"}, {"long_name": "Auburn University", "types": ["sublocality", "political"], "short_name": "Auburn University"}, {"long_name": "Auburn", "types": ["locality", "political"], "short_name": "Auburn"}, {"long_name": "Lee", "types": ["administrative_area_level_2", "political"], "short_name": "Lee"}, {"long_name": "Alabama", "types": ["administrative_area_level_1", "political"], "short_name": "AL"}, {"long_name": "United States", "types": ["country", "political"], "short_name": "US"}, {"long_name": "36849", "types": ["postal_code"], "short_name": "36849"}, {"long_name": "0001", "types": [], "short_name": "0001"}], "formatted_address": "Auburn University, 200 Broun Hall, Auburn, AL 36849, USA", "types": ["point_of_interest", "university", "establishment"]}, {"geometry": {"location": {"lat": 32.60434, "lng": -85.4867714}, "viewport": {"northeast": {"lat": 32.6056889802915, "lng": -85.4854224197085}, "southwest": {"lat": 32.6029910197085, "lng": -85.4881203802915}}, "location_type": "APPROXIMATE"}, "address_components": [{"long_name": "Auburn University", "types": ["point_of_interest", "establishment"], "short_name": "Auburn University"}, {"long_name": "Auburn University", "types": ["establishment"], "short_name": "Auburn University"}, {"long_name": "226", "types": ["street_number"], "short_name": "226"}, {"long_name": "Thach Concourse", "types": ["route"], "short_name": "Thach Concourse"}, {"long_name": "Auburn University", "types": ["sublocality", "political"], "short_name": "Auburn University"}, {"long_name": "Auburn", "types": ["locality", "political"], "short_name": "Auburn"}, {"long_name": "Lee", "types": ["administrative_area_level_2", "political"], "short_name": "Lee"}, {"long_name": "Alabama", "types": ["administrative_area_level_1", "political"], "short_name": "AL"}, {"long_name": "United States", "types": ["country", "political"], "short_name": "US"}, {"long_name": "36849", "types": ["postal_code"], "short_name": "36849"}, {"long_name": "0001", "types": [], "short_name": "0001"}], "formatted_address": "Auburn University, 226 Thach Concourse, Auburn, AL 36849, USA", "types": ["point_of_interest", "university", "establishment"]}, {"geometry": {"bounds": {"northeast": {"lat": 32.6074346, "lng": -85.48047650000001}, "southwest": {"lat": 32.5853078, "lng": -85.5149528}}, "location": {"lat": 32.5952478, "lng": -85.496822}, "viewport": {"northeast": {"lat": 32.6074346, "lng": -85.48047650000001}, "southwest": {"lat": 32.5853078, "lng": -85.5149528}}, "location_type": "APPROXIMATE"}, "address_components": [{"long_name": "Auburn University", "types": ["establishment"], "short_name": "Auburn University"}, {"long_name": "255", "types": ["street_number"], "short_name": "255"}, {"long_name": "Heisman Drive", "types": ["route"], "short_name": "Heisman Drive"}, {"long_name": "Auburn", "types": ["locality", "political"], "short_name": "Auburn"}, {"long_name": "Lee", "types": ["administrative_area_level_2", "political"], "short_name": "Lee"}, {"long_name": "Alabama", "types": ["administrative_area_level_1", "political"], "short_name": "AL"}, {"long_name": "United States", "types": ["country", "political"], "short_name": "US"}, {"long_name": "36849", "types": ["postal_code"], "short_name": "36849"}], "formatted_address": "Auburn University, 255 Heisman Drive, Auburn, AL 36849, USA", "types": ["university", "establishment"]}, {"geometry": {"location": {"lat": 32.6047827, "lng": -85.48275249999999}, "viewport": {"northeast": {"lat": 32.6061316802915, "lng": -85.4814035197085}, "southwest": {"lat": 32.60343371970851, "lng": -85.4841014802915}}, "location_type": "APPROXIMATE"}, "address_components": [{"long_name": "Auburn University", "types": ["point_of_interest", "establishment"], "short_name": "Auburn University"}, {"long_name": "Auburn University", "types": ["establishment"], "short_name": "Auburn University"}, {"long_name": "105", "types": ["street_number"], "short_name": "105"}, {"long_name": "Samford Hall", "types": ["route"], "short_name": "Samford Hall"}, {"long_name": "Auburn", "types": ["locality", "political"], "short_name": "Auburn"}, {"long_name": "Lee", "types": ["administrative_area_level_2", "political"], "short_name": "Lee"}, {"long_name": "Alabama", "types": ["administrative_area_level_1", "political"], "short_name": "AL"}, {"long_name": "United States", "types": ["country", "political"], "short_name": "US"}, {"long_name": "36849", "types": ["postal_code"], "short_name": "36849"}, {"long_name": "0001", "types": [], "short_name": "0001"}], "formatted_address": "Auburn University, 105 Samford Hall, Auburn, AL 36849, USA", "types": ["point_of_interest", "university", "establishment"]}, {"geometry": {"location": {"lat": 32.606929, "lng": -85.479607}, "viewport": {"northeast": {"lat": 32.6082779802915, "lng": -85.47825801970849}, "southwest": {"lat": 32.6055800197085, "lng": -85.4809559802915}}, "location_type": "APPROXIMATE"}, "address_components": [{"long_name": "Auburn University", "types": ["point_of_interest", "establishment"], "short_name": "Auburn University"}, {"long_name": "100", "types": ["street_number"], "short_name": "100"}, {"long_name": "North Gay Street", "types": ["route"], "short_name": "N Gay St"}, {"long_name": "Auburn", "types": ["locality", "political"], "short_name": "Auburn"}, {"long_name": "Lee", "types": ["administrative_area_level_2", "political"], "short_name": "Lee"}, {"long_name": "Alabama", "types": ["administrative_area_level_1", "political"], "short_name": "AL"}, {"long_name": "United States", "types": ["country", "political"], "short_name": "US"}, {"long_name": "36830", "types": ["postal_code"], "short_name": "36830"}], "formatted_address": "Auburn University, 100 North Gay Street, Auburn, AL 36830, USA", "types": ["point_of_interest", "university", "establishment"]}, {"geometry": {"location": {"lat": 32.6037054, "lng": -85.4834369}, "viewport": {"northeast": {"lat": 32.60505438029151, "lng": -85.4820879197085}, "southwest": {"lat": 32.60235641970851, "lng": -85.48478588029151}}, "location_type": "APPROXIMATE"}, "address_components": [{"long_name": "Auburn University-nutrition department", "types": ["point_of_interest", "establishment"], "short_name": "Auburn University-nutrition department"}, {"long_name": "Auburn University", "types": ["establishment"], "short_name": "Auburn University"}, {"long_name": "328", "types": ["street_number"], "short_name": "328"}, {"long_name": "Spidle Hall", "types": ["route"], "short_name": "Spidle Hall"}, {"long_name": "Auburn University", "types": ["sublocality", "political"], "short_name": "Auburn University"}, {"long_name": "Auburn University", "types": ["locality", "political"], "short_name": "Auburn University"}, {"long_name": "Lee", "types": ["administrative_area_level_2", "political"], "short_name": "Lee"}, {"long_name": "Alabama", "types": ["administrative_area_level_1", "political"], "short_name": "AL"}, {"long_name": "United States", "types": ["country", "political"], "short_name": "US"}, {"long_name": "36849", "types": ["postal_code"], "short_name": "36849"}], "formatted_address": "Auburn University-nutrition department, 328 Spidle Hall, Auburn University, AL 36849, USA", "types": ["point_of_interest", "university", "establishment"]}]}, "longitude": -85.48611149999999, "state": "AL", "latitude": 32.6033726, "id": 2013}, {"city": "Montgomery", "domain": "aum.edu", "name": "Auburn University - Montgomery", "geocoder": {"status": "OK", "results": [{"geometry": {"bounds": {"northeast": {"lat": 32.3733691, "lng": -86.1722381}, "southwest": {"lat": 32.3654931, "lng": -86.1830506}}, "location": {"lat": 32.3705601, "lng": -86.1764475}, "viewport": {"northeast": {"lat": 32.3733691, "lng": -86.1722381}, "southwest": {"lat": 32.3654931, "lng": -86.1830506}}, "location_type": "APPROXIMATE"}, "address_components": [{"long_name": "Auburn University at Montgomery", "types": ["establishment"], "short_name": "Auburn University at Montgomery"}, {"long_name": "107", "types": ["subpremise"], "short_name": "107"}, {"long_name": "7440", "types": ["street_number"], "short_name": "7440"}, {"long_name": "East Drive", "types": ["route"], "short_name": "East Dr"}, {"long_name": "Montgomery", "types": ["locality", "political"], "short_name": "Montgomery"}, {"long_name": "Montgomery", "types": ["administrative_area_level_2", "political"], "short_name": "Montgomery"}, {"long_name": "Alabama", "types": ["administrative_area_level_1", "political"], "short_name": "AL"}, {"long_name": "United States", "types": ["country", "political"], "short_name": "US"}, {"long_name": "36117", "types": ["postal_code"], "short_name": "36117"}], "formatted_address": "Auburn University at Montgomery, 7440 East Drive #107, Montgomery, AL 36117, USA", "types": ["university", "establishment"]}]}, "longitude": -86.1764475, "state": "AL", "latitude": 32.3705601, "id": 2014}, {"city": "Hennepin", "domain": "augsburg.edu", "name": "Augsburg College", "geocoder": {"status": "OK", "results": [{"geometry": {"bounds": {"northeast": {"lat": 44.9681825, "lng": -93.2361514}, "southwest": {"lat": 44.9644178, "lng": -93.2441219}}, "location": {"lat": 44.9663695, "lng": -93.241518}, "viewport": {"northeast": {"lat": 44.9681825, "lng": -93.2361514}, "southwest": {"lat": 44.9644178, "lng": -93.2441219}}, "location_type": "APPROXIMATE"}, "address_components": [{"long_name": "Augsburg College", "types": ["establishment"], "short_name": "Augsburg College"}, {"long_name": "2211", "types": ["street_number"], "short_name": "2211"}, {"long_name": "Riverside Avenue", "types": ["route"], "short_name": "Riverside Ave"}, {"long_name": "Minneapolis", "types": ["locality", "political"], "short_name": "Minneapolis"}, {"long_name": "Hennepin", "types": ["administrative_area_level_2", "political"], "short_name": "Hennepin"}, {"long_name": "Minnesota", "types": ["administrative_area_level_1", "political"], "short_name": "MN"}, {"long_name": "United States", "types": ["country", "political"], "short_name": "US"}, {"long_name": "55454", "types": ["postal_code"], "short_name": "55454"}], "formatted_address": "Augsburg College, 2211 Riverside Avenue, Minneapolis, MN 55454, USA", "types": ["university", "establishment"]}]}, "longitude": -93.241518, "state": "MN", "latitude": 44.9663695, "id": 2015}, {"city": "Rock Island", "domain": "IL", "name": "Augustana College", "geocoder": {"status": "OK", "results": [{"geometry": {"bounds": {"northeast": {"lat": 41.5075018, "lng": -90.54644259999999}, "southwest": {"lat": 41.4982769, "lng": -90.5571731}}, "location": {"lat": 41.5042419, "lng": -90.5512569}, "viewport": {"northeast": {"lat": 41.5075018, "lng": -90.54644259999999}, "southwest": {"lat": 41.4982769, "lng": -90.5571731}}, "location_type": "APPROXIMATE"}, "address_components": [{"long_name": "Augustana College", "types": ["establishment"], "short_name": "Augustana College"}, {"long_name": "639", "types": ["street_number"], "short_name": "639"}, {"long_name": "38th Street", "types": ["route"], "short_name": "38th St"}, {"long_name": "Rock Island", "types": ["locality", "political"], "short_name": "Rock Island"}, {"long_name": "Rock Island", "types": ["administrative_area_level_3", "political"], "short_name": "Rock Island"}, {"long_name": "Rock Island", "types": ["administrative_area_level_2", "political"], "short_name": "Rock Island"}, {"long_name": "Illinois", "types": ["administrative_area_level_1", "political"], "short_name": "IL"}, {"long_name": "United States", "types": ["country", "political"], "short_name": "US"}, {"long_name": "61201", "types": ["postal_code"], "short_name": "61201"}], "formatted_address": "Augustana College, 639 38th Street, Rock Island, IL 61201, USA", "types": ["university", "establishment"]}]}, "longitude": -90.5512569, "state": "IL", "latitude": 41.5042419, "id": 2016}, {"city": "Rock Island", "domain": "SD", "name": "Augustana College", "geocoder": {"status": "OK", "results": [{"geometry": {"bounds": {"northeast": {"lat": 41.5075018, "lng": -90.54644259999999}, "southwest": {"lat": 41.4982769, "lng": -90.5571731}}, "location": {"lat": 41.5042419, "lng": -90.5512569}, "viewport": {"northeast": {"lat": 41.5075018, "lng": -90.54644259999999}, "southwest": {"lat": 41.4982769, "lng": -90.5571731}}, "location_type": "APPROXIMATE"}, "address_components": [{"long_name": "Augustana College", "types": ["establishment"], "short_name": "Augustana College"}, {"long_name": "639", "types": ["street_number"], "short_name": "639"}, {"long_name": "38th Street", "types": ["route"], "short_name": "38th St"}, {"long_name": "Rock Island", "types": ["locality", "political"], "short_name": "Rock Island"}, {"long_name": "Rock Island", "types": ["administrative_area_level_3", "political"], "short_name": "Rock Island"}, {"long_name": "Rock Island", "types": ["administrative_area_level_2", "political"], "short_name": "Rock Island"}, {"long_name": "Illinois", "types": ["administrative_area_level_1", "political"], "short_name": "IL"}, {"long_name": "United States", "types": ["country", "political"], "short_name": "US"}, {"long_name": "61201", "types": ["postal_code"], "short_name": "61201"}], "formatted_address": "Augustana College, 639 38th Street, Rock Island, IL 61201, USA", "types": ["university", "establishment"]}]}, "longitude": -90.5512569, "state": "IL", "latitude": 41.5042419, "id": 2017}, {"city": "Aurora", "domain": "aurora.edu", "name": "Aurora University", "geocoder": {"status": "OK", "results": [{"geometry": {"bounds": {"northeast": {"lat": 41.7557216, "lng": -88.34694549999999}, "southwest": {"lat": 41.7529239, "lng": -88.35205049999999}}, "location": {"lat": 41.7544406, "lng": -88.35003979999999}, "viewport": {"northeast": {"lat": 41.7557216, "lng": -88.34694549999999}, "southwest": {"lat": 41.7529239, "lng": -88.35205049999999}}, "location_type": "APPROXIMATE"}, "address_components": [{"long_name": "Aurora University", "types": ["establishment"], "short_name": "Aurora University"}, {"long_name": "347", "types": ["street_number"], "short_name": "347"}, {"long_name": "South Gladstone Avenue", "types": ["route"], "short_name": "S Gladstone Ave"}, {"long_name": "Aurora", "types": ["locality", "political"], "short_name": "Aurora"}, {"long_name": "Aurora", "types": ["administrative_area_level_3", "political"], "short_name": "Aurora"}, {"long_name": "Kane", "types": ["administrative_area_level_2", "political"], "short_name": "Kane"}, {"long_name": "Illinois", "types": ["administrative_area_level_1", "political"], "short_name": "IL"}, {"long_name": "United States", "types": ["country", "political"], "short_name": "US"}, {"long_name": "60506", "types": ["postal_code"], "short_name": "60506"}, {"long_name": "4892", "types": [], "short_name": "4892"}], "formatted_address": "Aurora University, 347 South Gladstone Avenue, Aurora, IL 60506, USA", "types": ["university", "establishment"]}]}, "longitude": -88.35003979999999, "state": "IL", "latitude": 41.7544406, "id": 2018}, {"city": "Grayson", "domain": "austinc.edu", "name": "Austin College", "geocoder": {"status": "OK", "results": [{"geometry": {"bounds": {"northeast": {"lat": 33.6516291, "lng": -96.5933582}, "southwest": {"lat": 33.6437275, "lng": -96.6013538}}, "location": {"lat": 33.64626, "lng": -96.594854}, "viewport": {"northeast": {"lat": 33.6516291, "lng": -96.5933582}, "southwest": {"lat": 33.6437275, "lng": -96.6013538}}, "location_type": "APPROXIMATE"}, "address_components": [{"long_name": "Austin College", "types": ["establishment"], "short_name": "Austin College"}, {"long_name": "900", "types": ["street_number"], "short_name": "900"}, {"long_name": "North Grand Avenue", "types": ["route"], "short_name": "N Grand Ave"}, {"long_name": "Sherman", "types": ["locality", "political"], "short_name": "Sherman"}, {"long_name": "East Grayson", "types": ["administrative_area_level_3", "political"], "short_name": "East Grayson"}, {"long_name": "Grayson", "types": ["administrative_area_level_2", "political"], "short_name": "Grayson"}, {"long_name": "Texas", "types": ["administrative_area_level_1", "political"], "short_name": "TX"}, {"long_name": "United States", "types": ["country", "political"], "short_name": "US"}, {"long_name": "75090", "types": ["postal_code"], "short_name": "75090"}], "formatted_address": "Austin College, 900 North Grand Avenue, Sherman, TX 75090, USA", "types": ["university", "establishment"]}]}, "longitude": -96.594854, "state": "TX", "latitude": 33.64626, "id": 2019}, {"city": "Montgomery", "domain": "apsu.edu", "name": "Austin Peay State University", "geocoder": {"status": "OK", "results": [{"geometry": {"bounds": {"northeast": {"lat": 36.5417658, "lng": -87.3494742}, "southwest": {"lat": 36.5300966, "lng": -87.36151749999999}}, "location": {"lat": 36.5318011, "lng": -87.3520435}, "viewport": {"northeast": {"lat": 36.5417658, "lng": -87.3494742}, "southwest": {"lat": 36.5300966, "lng": -87.36151749999999}}, "location_type": "APPROXIMATE"}, "address_components": [{"long_name": "Austin Peay State University", "types": ["establishment"], "short_name": "Austin Peay State University"}, {"long_name": "Clarksville", "types": ["locality", "political"], "short_name": "Clarksville"}, {"long_name": "Montgomery", "types": ["administrative_area_level_2", "political"], "short_name": "Montgomery"}, {"long_name": "Tennessee", "types": ["administrative_area_level_1", "political"], "short_name": "TN"}, {"long_name": "United States", "types": ["country", "political"], "short_name": "US"}, {"long_name": "37040", "types": ["postal_code"], "short_name": "37040"}], "formatted_address": "Austin Peay State University, Clarksville, TN 37040, USA", "types": ["university", "establishment"]}]}, "longitude": -87.3520435, "state": "TN", "latitude": 36.5318011, "id": 2020}, {"city": "Roanoke", "domain": "averett.edu", "name": "Averett College", "geocoder": {"status": "OK", "results": [{"geometry": {"location": {"lat": 37.2742793, "lng": -79.94060069999999}, "viewport": {"northeast": {"lat": 37.2831577, "lng": -79.9245933}, "southwest": {"lat": 37.2653999, "lng": -79.9566081}}, "location_type": "APPROXIMATE"}, "address_components": [{"long_name": "Averett University", "types": ["point_of_interest", "establishment"], "short_name": "Averett University"}, {"long_name": "108", "types": ["street_number"], "short_name": "108"}, {"long_name": "North Jefferson Street", "types": ["route"], "short_name": "N Jefferson St"}, {"long_name": "Gainsboro", "types": ["neighborhood", "political"], "short_name": "Gainsboro"}, {"long_name": "Roanoke", "types": ["locality", "political"], "short_name": "Roanoke"}, {"long_name": "Virginia", "types": ["administrative_area_level_1", "political"], "short_name": "VA"}, {"long_name": "United States", "types": ["country", "political"], "short_name": "US"}, {"long_name": "24016", "types": ["postal_code"], "short_name": "24016"}, {"long_name": "2423", "types": [], "short_name": "2423"}], "formatted_address": "Averett University, 108 North Jefferson Street, Roanoke, VA 24016, USA", "types": ["point_of_interest", "university", "establishment"]}]}, "longitude": -79.94060069999999, "state": "VA", "latitude": 37.2742793, "id": 2021}, {"city": "Lake Magdalene", "domain": "avila.edu", "name": "Avila College", "geocoder": {"status": "OK", "results": [{"geometry": {"location": {"lat": 28.1030378, "lng": -82.47121419999999}, "location_type": "APPROXIMATE", "viewport": {"northeast": {"lat": 28.117484, "lng": -82.461569}, "southwest": {"lat": 28.0972411, "lng": -82.48524789999999}}, "bounds": {"northeast": {"lat": 28.117484, "lng": -82.461569}, "southwest": {"lat": 28.0972411, "lng": -82.48524789999999}}}, "address_components": [{"long_name": "Avila", "short_name": "Avila", "types": ["neighborhood", "political"]}, {"long_name": "Lake Magdalene", "short_name": "Lake Magdalene", "types": ["locality", "political"]}, {"long_name": "Hillsborough", "short_name": "Hillsborough", "types": ["administrative_area_level_2", "political"]}, {"long_name": "Florida", "short_name": "FL", "types": ["administrative_area_level_1", "political"]}, {"long_name": "United States", "short_name": "US", "types": ["country", "political"]}], "formatted_address": "Avila, Lake Magdalene, FL, USA", "partial_match": true, "types": ["neighborhood", "political"]}]}, "longitude": -82.47121419999999, "state": "FL", "latitude": 28.1030378, "id": 2022}, {"city": "Azusa", "domain": "apu.edu", "name": "Azusa Pacific University", "geocoder": {"status": "OK", "results": [{"geometry": {"location": {"lat": 34.1290057, "lng": -117.8898359}, "location_type": "APPROXIMATE", "viewport": {"northeast": {"lat": 34.1365989, "lng": -117.8813331}, "southwest": {"lat": 34.1270483, "lng": -117.9024857}}, "bounds": {"northeast": {"lat": 34.1365989, "lng": -117.8813331}, "southwest": {"lat": 34.1270483, "lng": -117.9024857}}}, "address_components": [{"long_name": "Azusa Pacific University", "short_name": "Azusa Pacific University", "types": ["establishment"]}, {"long_name": "921", "short_name": "921", "types": ["street_number"]}, {"long_name": "East Alosta Avenue", "short_name": "E Alosta Ave", "types": ["route"]}, {"long_name": "Azusa", "short_name": "Azusa", "types": ["locality", "political"]}, {"long_name": "Los Angeles", "short_name": "Los Angeles", "types": ["administrative_area_level_2", "political"]}, {"long_name": "California", "short_name": "CA", "types": ["administrative_area_level_1", "political"]}, {"long_name": "United States", "short_name": "US", "types": ["country", "political"]}, {"long_name": "91702", "short_name": "91702", "types": ["postal_code"]}, {"long_name": "2769", "short_name": "2769", "types": []}], "formatted_address": "Azusa Pacific University, 921 East Alosta Avenue, Azusa, CA 91702, USA", "types": ["university", "establishment"]}]}, "longitude": -117.8898359, "state": "CA", "latitude": 34.1290057, "id": 2023}, {"city": "Norfolk", "domain": "babson.edu", "name": "Babson College", "geocoder": {"status": "OK", "results": [{"geometry": {"location": {"lat": 42.2965776, "lng": -71.2695098}, "location_type": "APPROXIMATE", "viewport": {"northeast": {"lat": 42.29815903029149, "lng": -71.2684930697085}, "southwest": {"lat": 42.29546106970849, "lng": -71.2711910302915}}, "bounds": {"northeast": {"lat": 42.2975878, "lng": -71.268973}, "southwest": {"lat": 42.2960323, "lng": -71.2707111}}}, "address_components": [{"long_name": "Babson", "short_name": "Babson", "types": ["establishment"]}, {"long_name": "231", "short_name": "231", "types": ["street_number"]}, {"long_name": "Forest St", "short_name": "Forest St", "types": ["route"]}, {"long_name": "Wellesley", "short_name": "Wellesley", "types": ["locality", "political"]}, {"long_name": "Norfolk", "short_name": "Norfolk", "types": ["administrative_area_level_2", "political"]}, {"long_name": "Massachusetts", "short_name": "MA", "types": ["administrative_area_level_1", "political"]}, {"long_name": "United States", "short_name": "US", "types": ["country", "political"]}, {"long_name": "02481", "short_name": "02481", "types": ["postal_code"]}], "formatted_address": "Babson, 231 Forest St, Wellesley, MA 02481, USA", "types": ["university", "establishment"]}]}, "longitude": -71.2695098, "state": "MA", "latitude": 42.2965776, "id": 2024}, {"city": "Cuyahoga", "domain": "baldwinw.edu", "name": "Baldwin-Wallace College", "geocoder": {"status": "OK", "results": [{"geometry": {"location": {"lat": 41.3735087, "lng": -81.84839099999999}, "location_type": "APPROXIMATE", "viewport": {"northeast": {"lat": 41.3761263, "lng": -81.8438182}, "southwest": {"lat": 41.3656734, "lng": -81.8541688}}, "bounds": {"northeast": {"lat": 41.37716080000001, "lng": -81.8438182}, "southwest": {"lat": 41.3656734, "lng": -81.86336879999999}}}, "address_components": [{"long_name": "Baldwin Wallace University", "short_name": "Baldwin Wallace University", "types": ["establishment"]}, {"long_name": "275", "short_name": "275", "types": ["street_number"]}, {"long_name": "Eastland Road", "short_name": "Eastland Rd", "types": ["route"]}, {"long_name": "Berea", "short_name": "Berea", "types": ["neighborhood", "political"]}, {"long_name": "Berea", "short_name": "Berea", "types": ["locality", "political"]}, {"long_name": "Cuyahoga", "short_name": "Cuyahoga", "types": ["administrative_area_level_2", "political"]}, {"long_name": "Ohio", "short_name": "OH", "types": ["administrative_area_level_1", "political"]}, {"long_name": "United States", "short_name": "US", "types": ["country", "political"]}, {"long_name": "44017", "short_name": "44017", "types": ["postal_code"]}], "formatted_address": "Baldwin Wallace University, 275 Eastland Road, Berea, OH 44017, USA", "types": ["university", "establishment"]}]}, "longitude": -81.84839099999999, "state": "OH", "latitude": 41.3735087, "id": 2025}, {"city": "Delaware", "domain": "bsu.edu", "name": "Ball State University", "geocoder": {"status": "OK", "results": [{"geometry": {"bounds": {"northeast": {"lat": 40.2244482, "lng": -85.40095}, "southwest": {"lat": 40.1947746, "lng": -85.4248207}}, "location": {"lat": 40.1972366, "lng": -85.4088412}, "viewport": {"northeast": {"lat": 40.2244482, "lng": -85.40095}, "southwest": {"lat": 40.1947746, "lng": -85.4248207}}, "location_type": "APPROXIMATE"}, "address_components": [{"long_name": "Ball State University", "types": ["establishment"], "short_name": "Ball State University"}, {"long_name": "2000", "types": ["street_number"], "short_name": "2000"}, {"long_name": "W University Ave", "types": ["route"], "short_name": "W University Ave"}, {"long_name": "Muncie", "types": ["locality", "political"], "short_name": "Muncie"}, {"long_name": "Center", "types": ["administrative_area_level_3", "political"], "short_name": "Center"}, {"long_name": "Delaware", "types": ["administrative_area_level_2", "political"], "short_name": "Delaware"}, {"long_name": "Indiana", "types": ["administrative_area_level_1", "political"], "short_name": "IN"}, {"long_name": "United States", "types": ["country", "political"], "short_name": "US"}, {"long_name": "47306", "types": ["postal_code"], "short_name": "47306"}], "formatted_address": "Ball State University, 2000 W University Ave, Muncie, IN 47306, USA", "types": ["university", "establishment"]}]}, "longitude": -85.4088412, "state": "IN", "latitude": 40.1972366, "id": 2026}, {"city": "Douglas", "domain": "bakeru.edu", "name": "Baker University", "geocoder": {"status": "OK", "results": [{"geometry": {"bounds": {"northeast": {"lat": 38.7801427, "lng": -95.1860985}, "southwest": {"lat": 38.7759371, "lng": -95.1902396}}, "location": {"lat": 38.777439, "lng": -95.188819}, "viewport": {"northeast": {"lat": 38.7801427, "lng": -95.1860985}, "southwest": {"lat": 38.7759371, "lng": -95.1902396}}, "location_type": "APPROXIMATE"}, "address_components": [{"long_name": "Baker University", "types": ["establishment"], "short_name": "Baker University"}, {"long_name": "618", "types": ["street_number"], "short_name": "618"}, {"long_name": "8th Street", "types": ["route"], "short_name": "8th Street"}, {"long_name": "Baldwin City", "types": ["locality", "political"], "short_name": "Baldwin City"}, {"long_name": "Palmyra", "types": ["administrative_area_level_3", "political"], "short_name": "Palmyra"}, {"long_name": "Douglas", "types": ["administrative_area_level_2", "political"], "short_name": "Douglas"}, {"long_name": "Kansas", "types": ["administrative_area_level_1", "political"], "short_name": "Kansas"}, {"long_name": "United States", "types": ["country", "political"], "short_name": "US"}, {"long_name": "66006", "types": ["postal_code"], "short_name": "66006"}], "formatted_address": "Baker University, 618 8th Street, Baldwin City, Kansas 66006, USA", "types": ["university", "establishment"]}]}, "longitude": -95.188819, "state": "KS", "latitude": 38.777439, "id": 2027}, {"city": "Greene", "domain": "bbc.edu", "name": "Baptist Bible College", "geocoder": {"status": "OK", "results": [{"geometry": {"location": {"lat": 37.240493, "lng": -93.2840018}, "viewport": {"northeast": {"lat": 37.2493754, "lng": -93.26799439999999}, "southwest": {"lat": 37.2316096, "lng": -93.30000919999999}}, "location_type": "APPROXIMATE"}, "address_components": [{"long_name": "Baptist Bible College", "types": ["point_of_interest", "establishment"], "short_name": "Baptist Bible College"}, {"long_name": "628", "types": ["street_number"], "short_name": "628"}, {"long_name": "E Kearney St", "types": ["route"], "short_name": "E Kearney St"}, {"long_name": "Robberson", "types": ["neighborhood", "political"], "short_name": "Robberson"}, {"long_name": "Springfield", "types": ["locality", "political"], "short_name": "Springfield"}, {"long_name": "Springfield", "types": ["administrative_area_level_3", "political"], "short_name": "Springfield"}, {"long_name": "Greene", "types": ["administrative_area_level_2", "political"], "short_name": "Greene"}, {"long_name": "Missouri", "types": ["administrative_area_level_1", "political"], "short_name": "MO"}, {"long_name": "United States", "types": ["country", "political"], "short_name": "US"}, {"long_name": "65803", "types": ["postal_code"], "short_name": "65803"}], "formatted_address": "Baptist Bible College, 628 E Kearney St, Springfield, MO 65803, USA", "types": ["point_of_interest", "university", "establishment"]}]}, "longitude": -93.2840018, "state": "MO", "latitude": 37.240493, "id": 2028}, {"city": "Dutchess", "domain": "bard.edu", "name": "Bard College", "geocoder": {"status": "OK", "results": [{"geometry": {"bounds": {"northeast": {"lat": 42.033085, "lng": -73.90094429999999}, "southwest": {"lat": 42.01187970000001, "lng": -73.9192397}}, "location": {"lat": 42.0244225, "lng": -73.9036789}, "viewport": {"northeast": {"lat": 42.033085, "lng": -73.90094429999999}, "southwest": {"lat": 42.01187970000001, "lng": -73.9192397}}, "location_type": "APPROXIMATE"}, "address_components": [{"long_name": "Bard College", "types": ["establishment"], "short_name": "Bard College"}, {"long_name": "Campus Road", "types": ["route"], "short_name": "Campus Rd"}, {"long_name": "Red Hook", "types": ["administrative_area_level_3", "political"], "short_name": "Red Hook"}, {"long_name": "Dutchess", "types": ["administrative_area_level_2", "political"], "short_name": "Dutchess"}, {"long_name": "New York", "types": ["administrative_area_level_1", "political"], "short_name": "NY"}, {"long_name": "United States", "types": ["country", "political"], "short_name": "US"}, {"long_name": "12571", "types": ["postal_code"], "short_name": "12571"}], "formatted_address": "Bard College, Campus Road, Red Hook, NY 12571, USA", "types": ["university", "establishment"]}]}, "longitude": -73.9036789, "state": "NY", "latitude": 42.0244225, "id": 2029}, {"city": "Miami-Dade", "domain": "barry.edu", "name": "Barry University", "geocoder": {"status": "OK", "results": [{"geometry": {"bounds": {"northeast": {"lat": 25.8823444, "lng": -80.19281869999999}, "southwest": {"lat": 25.8768857, "lng": -80.2062351}}, "location": {"lat": 25.8788348, "lng": -80.19727019999999}, "viewport": {"northeast": {"lat": 25.8823444, "lng": -80.19281869999999}, "southwest": {"lat": 25.8768857, "lng": -80.2062351}}, "location_type": "APPROXIMATE"}, "address_components": [{"long_name": "Barry University", "types": ["establishment"], "short_name": "Barry University"}, {"long_name": "11300", "types": ["street_number"], "short_name": "11300"}, {"long_name": "Northeast 2nd Avenue", "types": ["route"], "short_name": "NE 2nd Ave"}, {"long_name": "Miami", "types": ["locality", "political"], "short_name": "Miami"}, {"long_name": "Miami-Dade", "types": ["administrative_area_level_2", "political"], "short_name": "Miami-Dade"}, {"long_name": "Florida", "types": ["administrative_area_level_1", "political"], "short_name": "FL"}, {"long_name": "United States", "types": ["country", "political"], "short_name": "US"}, {"long_name": "33161", "types": ["postal_code"], "short_name": "33161"}], "formatted_address": "Barry University, 11300 Northeast 2nd Avenue, Miami, FL 33161, USA", "types": ["university", "establishment"]}]}, "longitude": -80.19727019999999, "state": "FL", "latitude": 25.8788348, "id": 2030}, {"city": "King", "domain": "bastyr.edu", "name": "Bastyr University", "geocoder": {"status": "OK", "results": [{"geometry": {"bounds": {"northeast": {"lat": 47.7316157, "lng": -122.2473483}, "southwest": {"lat": 47.7282289, "lng": -122.2531293}}, "location": {"lat": 47.730022, "lng": -122.2518938}, "viewport": {"northeast": {"lat": 47.7316157, "lng": -122.2473483}, "southwest": {"lat": 47.7282289, "lng": -122.2531293}}, "location_type": "APPROXIMATE"}, "address_components": [{"long_name": "Bastyr University", "types": ["establishment"], "short_name": "Bastyr University"}, {"long_name": "14500", "types": ["street_number"], "short_name": "14500"}, {"long_name": "Juanita Drive", "types": ["route"], "short_name": "Juanita Drive"}, {"long_name": "Kenmore", "types": ["locality", "political"], "short_name": "Kenmore"}, {"long_name": "King", "types": ["administrative_area_level_2", "political"], "short_name": "King"}, {"long_name": "Washington", "types": ["administrative_area_level_1", "political"], "short_name": "WA"}, {"long_name": "United States", "types": ["country", "political"], "short_name": "US"}, {"long_name": "98028", "types": ["postal_code"], "short_name": "98028"}], "formatted_address": "Bastyr University, 14500 Juanita Drive, Kenmore, WA 98028, USA", "types": ["university", "establishment"]}]}, "longitude": -122.2518938, "state": "WA", "latitude": 47.730022, "id": 2031}, {"city": "Lewiston", "domain": "bates.edu", "name": "Bates College", "geocoder": {"status": "OK", "results": [{"geometry": {"bounds": {"northeast": {"lat": 44.1093933, "lng": -70.1941446}, "southwest": {"lat": 44.1027667, "lng": -70.2100933}}, "location": {"lat": 44.1055962, "lng": -70.2031861}, "viewport": {"northeast": {"lat": 44.1093933, "lng": -70.1941446}, "southwest": {"lat": 44.1027667, "lng": -70.2100933}}, "location_type": "APPROXIMATE"}, "address_components": [{"long_name": "Bates", "types": ["establishment"], "short_name": "Bates"}, {"long_name": "2", "types": ["street_number"], "short_name": "2"}, {"long_name": "Andrews Road", "types": ["route"], "short_name": "Andrews Road"}, {"long_name": "Lewiston", "types": ["locality", "political"], "short_name": "Lewiston"}, {"long_name": "Androscoggin", "types": ["administrative_area_level_2", "political"], "short_name": "Androscoggin"}, {"long_name": "Maine", "types": ["administrative_area_level_1", "political"], "short_name": "ME"}, {"long_name": "United States", "types": ["country", "political"], "short_name": "US"}, {"long_name": "04240", "types": ["postal_code"], "short_name": "04240"}, {"long_name": "6028", "types": [], "short_name": "6028"}], "formatted_address": "Bates, 2 Andrews Road, Lewiston, ME 04240, USA", "types": ["university", "establishment"]}, {"geometry": {"bounds": {"northeast": {"lat": 44.104156, "lng": -70.2028124}, "southwest": {"lat": 44.1039509, "lng": -70.2031691}}, "location": {"lat": 44.104036, "lng": -70.2029672}, "viewport": {"northeast": {"lat": 44.1054024302915, "lng": -70.20164176970849}, "southwest": {"lat": 44.1027044697085, "lng": -70.20433973029151}}, "location_type": "APPROXIMATE"}, "address_components": [{"long_name": "Bates College: Muskie Archives", "types": ["establishment"], "short_name": "Bates College: Muskie Archives"}, {"long_name": "Campus Avenue", "types": ["route"], "short_name": "Campus Ave"}, {"long_name": "Lewiston", "types": ["locality", "political"], "short_name": "Lewiston"}, {"long_name": "Androscoggin", "types": ["administrative_area_level_2", "political"], "short_name": "Androscoggin"}, {"long_name": "Maine", "types": ["administrative_area_level_1", "political"], "short_name": "ME"}, {"long_name": "United States", "types": ["country", "political"], "short_name": "US"}, {"long_name": "04240", "types": ["postal_code"], "short_name": "04240"}], "formatted_address": "Bates College: Muskie Archives, Bates, Campus Avenue, Lewiston, ME 04240, USA", "types": ["university", "establishment"]}]}, "longitude": -70.2031861, "state": "ME", "latitude": 44.1055962, "id": 2032}, {"city": "Houston", "domain": "bcm.tmc.edu", "name": "Baylor College of Medicine", "geocoder": {"status": "OK", "results": [{"geometry": {"location": {"lat": 29.7107363, "lng": -95.3966045}, "viewport": {"northeast": {"lat": 29.720427, "lng": -95.38059709999999}, "southwest": {"lat": 29.70104469999999, "lng": -95.4126119}}, "location_type": "APPROXIMATE"}, "address_components": [{"long_name": "Baylor College of Medicine", "types": ["point_of_interest", "establishment"], "short_name": "Baylor College of Medicine"}, {"long_name": "1", "types": ["street_number"], "short_name": "1"}, {"long_name": "Baylor Plaza", "types": ["route"], "short_name": "Baylor Plaza"}, {"long_name": "South Central Houston", "types": ["neighborhood", "political"], "short_name": "South Central Houston"}, {"long_name": "Houston", "types": ["locality", "political"], "short_name": "Houston"}, {"long_name": "Harris", "types": ["administrative_area_level_2", "political"], "short_name": "Harris"}, {"long_name": "Texas", "types": ["administrative_area_level_1", "political"], "short_name": "TX"}, {"long_name": "United States", "types": ["country", "political"], "short_name": "US"}, {"long_name": "77030", "types": ["postal_code"], "short_name": "77030"}, {"long_name": "2504", "types": [], "short_name": "2504"}], "formatted_address": "Baylor College of Medicine, 1 Baylor Plaza, Houston, TX 77030, USA", "types": ["point_of_interest", "university", "establishment"]}, {"geometry": {"location": {"lat": 29.7107363, "lng": -95.3966045}, "viewport": {"northeast": {"lat": 29.7120852802915, "lng": -95.39525551970848}, "southwest": {"lat": 29.7093873197085, "lng": -95.39795348029149}}, "location_type": "APPROXIMATE"}, "address_components": [{"long_name": "Baylor College of Medicine", "types": ["point_of_interest", "establishment"], "short_name": "Baylor College of Medicine"}, {"long_name": "Baylor Plaza", "types": ["route"], "short_name": "Baylor Plaza"}, {"long_name": "South Central Houston", "types": ["neighborhood", "political"], "short_name": "South Central Houston"}, {"long_name": "Houston", "types": ["locality", "political"], "short_name": "Houston"}, {"long_name": "Harris", "types": ["administrative_area_level_2", "political"], "short_name": "Harris"}, {"long_name": "Texas", "types": ["administrative_area_level_1", "political"], "short_name": "TX"}, {"long_name": "United States", "types": ["country", "political"], "short_name": "US"}, {"long_name": "77030", "types": ["postal_code"], "short_name": "77030"}], "formatted_address": "Baylor College of Medicine, Baylor Plaza, Houston, TX 77030, USA", "types": ["point_of_interest", "university", "establishment"]}, {"geometry": {"location": {"lat": 29.709906, "lng": -95.40283}, "viewport": {"northeast": {"lat": 29.7112549802915, "lng": -95.4014810197085}, "southwest": {"lat": 29.7085570197085, "lng": -95.4041789802915}}, "location_type": "APPROXIMATE"}, "address_components": [{"long_name": "Baylor College Of Medicine", "types": ["point_of_interest", "establishment"], "short_name": "Baylor College Of Medicine"}, {"long_name": "6620", "types": ["street_number"], "short_name": "6620"}, {"long_name": "Main Street", "types": ["route"], "short_name": "Main St"}, {"long_name": "South Central Houston", "types": ["neighborhood", "political"], "short_name": "South Central Houston"}, {"long_name": "Houston", "types": ["locality", "political"], "short_name": "Houston"}, {"long_name": "Harris", "types": ["administrative_area_level_2", "political"], "short_name": "Harris"}, {"long_name": "Texas", "types": ["administrative_area_level_1", "political"], "short_name": "TX"}, {"long_name": "United States", "types": ["country", "political"], "short_name": "US"}, {"long_name": "77030", "types": ["postal_code"], "short_name": "77030"}], "formatted_address": "Baylor College Of Medicine, 6620 Main Street, Houston, TX 77030, USA", "types": ["point_of_interest", "university", "establishment"]}, {"geometry": {"location": {"lat": 29.711575, "lng": -95.400016}, "viewport": {"northeast": {"lat": 29.7129239802915, "lng": -95.39866701970848}, "southwest": {"lat": 29.7102260197085, "lng": -95.4013649802915}}, "location_type": "APPROXIMATE"}, "address_components": [{"long_name": "Baylor College of Medicine", "types": ["point_of_interest", "establishment"], "short_name": "Baylor College of Medicine"}, {"long_name": "1801", "types": ["subpremise"], "short_name": "1801"}, {"long_name": "6550", "types": ["street_number"], "short_name": "6550"}, {"long_name": "Fannin Street", "types": ["route"], "short_name": "Fannin St"}, {"long_name": "South Central Houston", "types": ["neighborhood", "political"], "short_name": "South Central Houston"}, {"long_name": "Houston", "types": ["locality", "political"], "short_name": "Houston"}, {"long_name": "Harris", "types": ["administrative_area_level_2", "political"], "short_name": "Harris"}, {"long_name": "Texas", "types": ["administrative_area_level_1", "political"], "short_name": "TX"}, {"long_name": "United States", "types": ["country", "political"], "short_name": "US"}, {"long_name": "77030", "types": ["postal_code"], "short_name": "77030"}, {"long_name": "2744", "types": [], "short_name": "2744"}], "formatted_address": "Baylor College of Medicine, 6550 Fannin Street #1801, Houston, TX 77030, USA", "types": ["point_of_interest", "university", "establishment"]}, {"geometry": {"location": {"lat": 29.709457, "lng": -95.403629}, "viewport": {"northeast": {"lat": 29.7108059802915, "lng": -95.40228001970848}, "southwest": {"lat": 29.7081080197085, "lng": -95.4049779802915}}, "location_type": "APPROXIMATE"}, "address_components": [{"long_name": "Baylor College of Medicine", "types": ["point_of_interest", "establishment"], "short_name": "Baylor College of Medicine"}, {"long_name": "520", "types": ["subpremise"], "short_name": "520"}, {"long_name": "6720", "types": ["street_number"], "short_name": "6720"}, {"long_name": "Bertner Avenue", "types": ["route"], "short_name": "Bertner Ave"}, {"long_name": "South Central Houston", "types": ["neighborhood", "political"], "short_name": "South Central Houston"}, {"long_name": "Houston", "types": ["locality", "political"], "short_name": "Houston"}, {"long_name": "Harris", "types": ["administrative_area_level_2", "political"], "short_name": "Harris"}, {"long_name": "Texas", "types": ["administrative_area_level_1", "political"], "short_name": "TX"}, {"long_name": "United States", "types": ["country", "political"], "short_name": "US"}, {"long_name": "77030", "types": ["postal_code"], "short_name": "77030"}], "formatted_address": "Baylor College of Medicine, 6720 Bertner Avenue #520, Houston, TX 77030, USA", "types": ["point_of_interest", "university", "establishment"]}, {"geometry": {"location": {"lat": 29.741721, "lng": -95.403092}, "viewport": {"northeast": {"lat": 29.7430699802915, "lng": -95.4017430197085}, "southwest": {"lat": 29.7403720197085, "lng": -95.40444098029151}}, "location_type": "APPROXIMATE"}, "address_components": [{"long_name": "Baylor College of Medicine", "types": ["point_of_interest", "establishment"], "short_name": "Baylor College of Medicine"}, {"long_name": "1721", "types": ["street_number"], "short_name": "1721"}, {"long_name": "Hawthorne Street", "types": ["route"], "short_name": "Hawthorne St"}, {"long_name": "Neartown/ Montrose", "types": ["neighborhood", "political"], "short_name": "Neartown/ Montrose"}, {"long_name": "Houston", "types": ["locality", "political"], "short_name": "Houston"}, {"long_name": "Harris", "types": ["administrative_area_level_2", "political"], "short_name": "Harris"}, {"long_name": "Texas", "types": ["administrative_area_level_1", "political"], "short_name": "TX"}, {"long_name": "United States", "types": ["country", "political"], "short_name": "US"}, {"long_name": "77098", "types": ["postal_code"], "short_name": "77098"}, {"long_name": "1605", "types": [], "short_name": "1605"}], "formatted_address": "Baylor College of Medicine, 1721 Hawthorne Street, Houston, TX 77098, USA", "types": ["point_of_interest", "university", "establishment"]}]}, "longitude": -95.3966045, "state": "TX", "latitude": 29.7107363, "id": 2033}, {"city": "McLennan", "domain": "baylor.edu", "name": "Baylor University", "geocoder": {"status": "OK", "results": [{"geometry": {"bounds": {"northeast": {"lat": 31.5419578, "lng": -97.1207258}, "southwest": {"lat": 31.5415039, "lng": -97.12125739999999}}, "location": {"lat": 31.5417501, "lng": -97.12100629999999},